doctor_name,speciality,area,latitude,longitude,fees,rating,contact,address,availability_text,availability_flag
Dr Khushbu Goel (Neurologist),neurology,dwarka,28.5945,77.0477,1000.0,4.1,Manipal Hospital Helpline,"Manipal Hospital, Sector 6, Dwarka, Delhi",Mon–Sat | 11:00 AM – 3:00 PM,1
Dr C S Narayanan (Neurologist),neurology,dwarka,28.5945,77.0477,1000.0,4.5,Manipal Hospital Helpline,"Manipal Hospital, Sector 6, Dwarka, Delhi","Mon–Sat | 9:30 AM – 1:30 PM, 4:30 PM – 7:30 PM",1
Dr Sweta Singla,neurology,dwarka,28.594,77.0337,1500.0,4.1,Via Clinic / Practo,"Sector 13, Dwarka, Delhi","Mon–Sat | 10:00 AM – 1:00 PM, 5:00 PM – 8:00 PM",1
Dr Dinesh Sareen,neurology,dwarka,28.5815,77.0459,800.0,3.9,Hospital Helpline,"Venkateshwar Hospital, Sector 18, Dwarka, Delhi","Mon–Sat | 9:30 AM – 1:30 PM, 4:30 PM – 7:30 PM",1
Dr Kumar Abhinav,neurology,dwarka,28.5816,77.046,1200.0,4.1,Via Clinic,"Namit Neuro Centre, Sector 18A, Dwarka, Delhi",Tue–Sun | 10:00 AM – 6:00 PM,1
Dr Rajnish Kumar,neurology,dwarka,28.588,77.032,800.0,4.7,+91 8882087545,"Sector 17, Dwarka, Delhi","Mon–Sat | 9:30 AM – 1:30 PM, 4:30 PM – 7:30 PM",1
Dr Madhukar Bhardwaj,neurology,dwarka,28.5807,77.0475,1500.0,4.7,Via Clinic,"Sector 19, Dwarka, Delhi",Mon–Fri | 9:00 AM – 2:00 PM,1
Dr Jitendra Kumar,neurology,dwarka,28.594,77.033,1200.0,4.7,Via Clinic,"Sector 13, Dwarka, Delhi","Mon–Sat | 10:00 AM – 1:00 PM, 5:00 PM – 8:00 PM",1
Dr Sankalp Mohan,neurology,dwarka,28.5815,77.0459,1000.0,4.0,Hospital Helpline,"Venkateshwar Hospital, Sector 18A, Dwarka, Delhi",Mon–Sat | 11:00 AM – 3:00 PM,1
Dr Manish Kumar (Neuro Surgeon),neurology,dwarka,28.589,77.058,800.0,4.5,Via Clinic,"Sector 9, Dwarka, Delhi",Tue–Sun | 10:00 AM – 6:00 PM,1
Neuro ENT Clinic Dwarka Mor,neurology,dwarka,28.588,77.024,1500.0,4.5,Via Clinic,"Dwarka Mor, Delhi","Mon–Sat | 9:30 AM – 1:30 PM, 4:30 PM – 7:30 PM",1
Dr Anita Sharma (Pediatric Neurologist),neurology,dwarka,28.595,77.047,1500.0,3.9,Via Clinic,"Sector 4, Dwarka, Delhi",Mon–Fri | 9:00 AM – 2:00 PM,1
Dr Karun Jain,orthopaedics,shahdara,28.6813,77.2905,800.0,3.8,Via Practo/Justdial,"Bhola Nath Nagar, Shahdara, Delhi",Mon–Fri | 9:00 AM – 2:00 PM,1
Dr Sanyam Jain,orthopaedics,shahdara,28.6765,77.292,1000.0,4.3,Via Practo/Justdial,"Mansarovar Park, Shahdara, Delhi","Mon–Sat | 10:00 AM – 1:00 PM, 5:00 PM – 8:00 PM",1
Dr Gagan Arora (CM Patel Hospital),orthopaedics,shahdara,28.6739,77.2892,800.0,4.2,Hospital Helpline,"CM Patel Hospital, Shahdara, Delhi","Mon–Sat | 10:00 AM – 1:00 PM, 5:00 PM – 8:00 PM",1
Dr Rahul Kumar Sahu,orthopaedics,shahdara,28.6821,77.2898,1000.0,4.7,Via Clinic,"Navin Shahdara, Delhi","Mon–Sat | 10:00 AM – 1:00 PM, 5:00 PM – 8:00 PM",1
Dr Mayank Kaushik,orthopaedics,shahdara,28.6892,77.2881,1200.0,4.6,Via Clinic,"West Jyoti Nagar, Shahdara, Delhi","Mon–Sat | 9:30 AM – 1:30 PM, 4:30 PM – 7:30 PM",1
Dr U P Singh,orthopaedics,shahdara,28.6818,77.2876,1500.0,3.8,Via Clinic,"Ram Nagar, Shahdara, Delhi","Mon–Sat | 10:00 AM – 1:00 PM, 5:00 PM – 8:00 PM",1
Ayu Health Hospital (Ortho Dept.),orthopaedics,shahdara,28.6899,77.2854,800.0,4.7,Hospital Helpline,"Loni Road, Jyoti Nagar West, Delhi",Mon–Sat | 11:00 AM – 3:00 PM,1
Shahdara Orthopaedic Center,orthopaedics,shahdara,28.6856,77.2917,800.0,4.4,Via Clinic,"Kabool Nagar, Shahdara, Delhi",Tue–Sun | 10:00 AM – 6:00 PM,1
Nova Skin & Orthopedic Clinic,orthopaedics,shahdara,28.684,77.2909,1500.0,4.3,Via Clinic,"Shahdara, Delhi",Mon–Fri | 9:00 AM – 2:00 PM,1
Dr Anshul Anand (Orthopaedics),orthopaedics,shahdara,28.6795,77.2941,1500.0,4.4,Via Clinic,"Oldanpur, Shahdara, Delhi","Mon–Sat | 9:30 AM – 1:30 PM, 4:30 PM – 7:30 PM",1
Medis Hospital (24x7),orthopaedics,shahdara,28.6783,77.2865,1000.0,4.1,Hospital Helpline,"Shahdara, Delhi","Mon–Sat | 10:00 AM – 1:00 PM, 5:00 PM – 8:00 PM",1
Your Health Clinic (Ortho),orthopaedics,shahdara,28.6981,77.2826,1500.0,4.5,Via Clinic,"Yamuna Vihar, Delhi",Mon–Fri | 9:00 AM – 2:00 PM,1
Shoulder & Knee Clinic,orthopaedics,shahdara,28.6954,77.2879,800.0,4.5,Via Clinic,"Vijay Park, Shahdara, Delhi",Mon–Fri | 9:00 AM – 2:00 PM,1
Dr Surya Vijay Singh,orthopaedics,shahdara,28.699,77.2814,1200.0,4.8,Via Clinic,"Yamuna Vihar, Delhi",Mon–Sat | 11:00 AM – 3:00 PM,1
Shivam Ortho Clinic,orthopaedics,shahdara,28.6972,77.2838,1000.0,3.9,Via Clinic,"Yamuna Vihar, Delhi",Mon–Sat | 11:00 AM – 3:00 PM,1
Dr Hemant Gupta (Surya Hospital),orthopaedics,krishna nagar,28.6498,77.2817,1500.0,4.5,Hospital Helpline,"East Azad Nagar, Krishna Nagar, Delhi","Mon–Sat | 10:00 AM – 1:00 PM, 5:00 PM – 8:00 PM",1
Dr Rajeev Jain,orthopaedics,krishna nagar,28.6498,77.2817,1000.0,4.3,Via Clinic,"Surya Hospital, Krishna Nagar, Delhi","Mon–Sat | 10:00 AM – 1:00 PM, 5:00 PM – 8:00 PM",1
Dr Praveen Nigam,orthopaedics,krishna nagar,28.6498,77.2817,1000.0,4.6,Via Clinic,"Surya Hospital, Krishna Nagar, Delhi",Tue–Sun | 10:00 AM – 6:00 PM,1
Dr Shashank Misra,orthopaedics,krishna nagar,28.6498,77.2817,1200.0,4.7,Via Clinic,"Surya Hospital, Krishna Nagar, Delhi","Mon–Sat | 10:00 AM – 1:00 PM, 5:00 PM – 8:00 PM",1
Dr Arun Kumar,orthopaedics,krishna nagar,28.6532,77.2849,1500.0,4.3,Via Clinic,"Chitra Vihar, Krishna Nagar, Delhi","Mon–Sat | 10:00 AM – 1:00 PM, 5:00 PM – 8:00 PM",1
Dr Apurv Mehra,orthopaedics,krishna nagar,28.651,77.2823,1200.0,4.5,Via Clinic,"Krishna Nagar, Delhi","Mon–Sat | 10:00 AM – 1:00 PM, 5:00 PM – 8:00 PM",1
Ganesh Ortho Trauma Centre,orthopaedics,krishna nagar,28.6493,77.2839,1000.0,3.9,Clinic Helpline,"Hansraj Marg, Krishna Nagar, Delhi",Mon–Fri | 9:00 AM – 2:00 PM,1
Dr R K Gupta,orthopaedics,krishna nagar,28.6507,77.2858,1200.0,4.7,Via Clinic,"Arjun Nagar, Krishna Nagar, Delhi",Tue–Sun | 10:00 AM – 6:00 PM,1
Dr Arvind Saxena,orthopaedics,krishna nagar,28.6504,77.2815,1000.0,4.2,Via Clinic,"Near Jain Mandir, Krishna Nagar, Delhi","Mon–Sat | 9:30 AM – 1:30 PM, 4:30 PM – 7:30 PM",1
Dr Sumit Kumar Rabi,neurology,krishna nagar,28.65,77.285,1000.0,4.1,Via Clinic / Practo,"Shreyan Neuro Care, Krishna Nagar, Delhi",Tue–Sun | 10:00 AM – 6:00 PM,1
Dr Amit Batra,neurology,krishna nagar,28.6501,77.2845,800.0,4.5,Via Clinic / Practo,"Krishna Nagar, East Delhi",Tue–Sun | 10:00 AM – 6:00 PM,1
Dr Rajesh Gupta,neurology,krishna nagar,28.6505,77.2835,1200.0,4.1,Via Clinic / Practo,"Krishna Nagar / Patparganj Area, Delhi","Mon–Sat | 9:30 AM – 1:30 PM, 4:30 PM – 7:30 PM",1
Dr Vivek Kumar,neurology,krishna nagar,28.6502,77.2842,1500.0,4.3,Via Clinic / Practo,"Krishna Nagar, East Delhi","Mon–Sat | 9:30 AM – 1:30 PM, 4:30 PM – 7:30 PM",1
Dr Sanjay Saxena,neurology,krishna nagar,28.6503,77.284,1000.0,3.9,Via Clinic / Practo,"Krishna Nagar, East Delhi",Mon–Fri | 9:00 AM – 2:00 PM,1
Dr Luv Bansal,neurology,krishna nagar,28.6492,77.3,1500.0,4.5,Via Clinic / Practo,"Vaishali (Near Krishna Nagar), Delhi NCR","Mon–Sat | 9:30 AM – 1:30 PM, 4:30 PM – 7:30 PM",1
Dr Arun K Agrawal,neurology,krishna nagar,28.6508,77.2901,1200.0,4.5,Via Clinic / Lybrate,"Anand Vihar / Near Krishna Nagar, Delhi",Mon–Sat | 11:00 AM – 3:00 PM,1
Dr Aditya Gupta,neurology,krishna nagar,28.6507,77.2899,1200.0,4.0,Via Clinic / Lybrate,Krishna Nagar / East Delhi,Mon–Fri | 9:00 AM – 2:00 PM,1
Dr Nitin Jain (Neurologist),neurology,shahdara,28.6849,77.2906,800.0,4.5,Via Clinic / Justdial,"Naveen Shahdara, Delhi","Mon–Sat | 9:30 AM – 1:30 PM, 4:30 PM – 7:30 PM",1
Dr Sumit Kumar Rabi,neurology,shahdara,28.6856,77.2917,800.0,4.1,Via Clinic,"Shreyan Neuro Care, Shahdara, Delhi",Mon–Fri | 9:00 AM – 2:00 PM,1
Dr Rajeev Ranjan,neurology,shahdara,28.6783,77.2865,1200.0,4.5,Hospital Helpline,"City Hospital & Trauma Centre, Shahdara, Delhi",Mon–Sat | 11:00 AM – 3:00 PM,1
Dr Rajesh Gupta,neurology,shahdara,28.683,77.289,1500.0,4.4,Via Practo,Shahdara / East Delhi Area,Mon–Sat | 11:00 AM – 3:00 PM,1
Dr Sanjay Saxena,neurology,shahdara,28.6825,77.288,1200.0,4.4,Via Practo,Shahdara / East Delhi Area,"Mon–Sat | 9:30 AM – 1:30 PM, 4:30 PM – 7:30 PM",1
Dr Amit Batra,neurology,shahdara,28.6818,77.2875,1500.0,4.4,Via Practo,Shahdara / East Delhi Area,"Mon–Sat | 10:00 AM – 1:00 PM, 5:00 PM – 8:00 PM",1
Dr Vivek Kumar,neurology,shahdara,28.6842,77.292,1500.0,4.5,Via Clinic,"Near Shahdara, East Delhi",Mon–Sat | 11:00 AM – 3:00 PM,1
Dr Luv Bansal,neurology,shahdara,28.685,77.291,1000.0,4.6,Via Clinic,"Near Shahdara, East Delhi",Mon–Sat | 11:00 AM – 3:00 PM,1
Dr Laxmikant R Tomar,neurology,shahdara,28.684,77.29,1500.0,3.8,Via Clinic,"Shahdara Area, Delhi","Mon–Sat | 10:00 AM – 1:00 PM, 5:00 PM – 8:00 PM",1
Dr Aditya Gupta (Brain Specialist),neurology,shahdara,28.6835,77.2895,800.0,4.3,Via Lybrate,Shahdara / East Delhi,"Mon–Sat | 9:30 AM – 1:30 PM, 4:30 PM – 7:30 PM",1
Dr Abhinav Gupta,neurology,shahdara,28.6845,77.2915,1000.0,4.0,Via Lybrate,"Shahdara Area, Delhi",Mon–Sat | 11:00 AM – 3:00 PM,1
Dr Shatrughna Pandey,neurology,shahdara,28.682,77.2885,800.0,4.6,Via Lybrate,"Shahdara Area, Delhi",Mon–Sat | 11:00 AM – 3:00 PM,1
Dr Sachin Suresh Babu,neurology,shahdara,28.6838,77.2898,800.0,3.8,Via Lybrate,"Shahdara Area, Delhi",Mon–Fri | 9:00 AM – 2:00 PM,1
Dr Anurag Gupta,neurology,shahdara,28.6841,77.2909,800.0,3.9,Via Lybrate,"Shahdara Area, Delhi","Mon–Sat | 9:30 AM – 1:30 PM, 4:30 PM – 7:30 PM",1
Dr Ranjeet Sharma,neurology,shahdara,28.6827,77.2889,800.0,3.9,Via Lybrate,"Shahdara Area, Delhi",Mon–Fri | 9:00 AM – 2:00 PM,1
The Neo-Orthopedic Clinic,orthopaedics,dwarka,28.5936,77.0531,800.0,4.3,+91 9871442963,"Sector 6, Dwarka, Delhi",Tue–Sun | 10:00 AM – 6:00 PM,1
Manipal Hospital (Orthopaedics),orthopaedics,dwarka,28.5945,77.0477,1000.0,4.0,+91 1149674967,"Sector 6, Dwarka, Delhi",Mon–Sat | 11:00 AM – 3:00 PM,1
Rathi Orthopaedic & Spine Clinic,orthopaedics,dwarka,28.5949,77.0385,1500.0,3.9,Via Practo/Clinic,"Sector 11, Dwarka, Delhi",Mon–Sat | 11:00 AM – 3:00 PM,1
Aakash Healthcare (Orthopaedics),orthopaedics,dwarka,28.5903,77.0244,800.0,4.1,Hospital Helpline,"Sector 3, Dwarka, Delhi",Mon–Sat | 11:00 AM – 3:00 PM,1
Ortho Care Fracture & Spine Clinic,orthopaedics,dwarka,28.5938,77.0508,1200.0,4.8,Via Practo,"Sector 6, Dwarka, Delhi","Mon–Sat | 9:30 AM – 1:30 PM, 4:30 PM – 7:30 PM",1
The Bone Clinic,orthopaedics,dwarka,28.594,77.0533,800.0,4.7,Local Listing,"Sector 6, Dwarka, Delhi",Mon–Sat | 11:00 AM – 3:00 PM,1
Sparsh Orthopaedics & Sports Injury Centre,orthopaedics,dwarka,28.588,77.0205,1500.0,4.1,Via Practo,"Sector 3, Dwarka, Delhi","Mon–Sat | 10:00 AM – 1:00 PM, 5:00 PM – 8:00 PM",1
Dr Praveen Tittal,orthopaedics,dwarka,28.5942,77.0302,1500.0,3.9,Via Clinic,"Sector 19, Dwarka, Delhi",Tue–Sun | 10:00 AM – 6:00 PM,1
Dr Shikhar Saxena,orthopaedics,dwarka,28.5837,77.0106,1000.0,4.4,Via Clinic,"Sector 13, Dwarka, Delhi","Mon–Sat | 10:00 AM – 1:00 PM, 5:00 PM – 8:00 PM",1
Joint & Spine Clinic - Dr RK Pandey,orthopaedics,dwarka,28.5949,77.0384,800.0,4.6,Via Clinic,"Sector 11, Dwarka, Delhi",Mon–Sat | 11:00 AM – 3:00 PM,1
Delhi Arthroscopy & Joint Replacement Clinic,orthopaedics,dwarka,28.5835,77.0101,800.0,4.1,Via Clinic,"Sector 17, Dwarka, Delhi",Mon–Sat | 11:00 AM – 3:00 PM,1
Cure & Flex Orthocare,orthopaedics,dwarka,28.5948,77.0387,1000.0,4.5,Via Clinic,"Sector 11, Dwarka, Delhi",Mon–Sat | 11:00 AM – 3:00 PM,1
Max Hospital (Ortho Dept.),orthopaedics,dwarka,28.5885,77.0142,1500.0,3.8,Hospital Helpline,"Sector 10, Dwarka, Delhi",Mon–Sat | 11:00 AM – 3:00 PM,1
Femme Med Hospital (Orthopaedics),orthopaedics,dwarka,28.5888,77.0221,800.0,4.2,Hospital Helpline,"Sector 8, Dwarka, Delhi",Tue–Sun | 10:00 AM – 6:00 PM,1
Dr Kunal Aneja,orthopaedics,rohini,28.7223,77.1145,1200.0,4.1,+91 9811211503,"Sector 8A, Rohini, Delhi","Mon–Sat | 10:00 AM – 1:00 PM, 5:00 PM – 8:00 PM",1
Dr Atul Kumar Garg,orthopaedics,rohini,28.725,77.11,1200.0,4.7,Via Clinic,"Sector 6, Rohini, Delhi","Mon–Sat | 9:30 AM – 1:30 PM, 4:30 PM – 7:30 PM",1
The Joint Clinic – Dr Amite Aggarwal,orthopaedics,rohini,28.7218,77.1123,1200.0,4.1,Via Clinic,"Sector 8, Rohini, Delhi",Mon–Sat | 11:00 AM – 3:00 PM,1
Dr Saurabh Moda,orthopaedics,rohini,28.724,77.1158,1000.0,4.1,Via Clinic,"Sector 7, Rohini, Delhi",Mon–Fri | 9:00 AM – 2:00 PM,1
Dr Manoj Sharma,orthopaedics,rohini,28.7231,77.1162,1000.0,4.5,Via Clinic,"Sector 7, Rohini, Delhi","Mon–Sat | 9:30 AM – 1:30 PM, 4:30 PM – 7:30 PM",1
UR Orthopaedic Clinic – Dr Ankur Sharma,orthopaedics,rohini,28.729,77.1022,1000.0,4.2,Via Clinic,"Sector 24, Rohini, Delhi","Mon–Sat | 10:00 AM – 1:00 PM, 5:00 PM – 8:00 PM",1
Krishna Ortho & Spine Centre,orthopaedics,rohini,28.7295,77.1048,1200.0,4.4,Via Clinic,"Sector 24, Rohini, Delhi","Mon–Sat | 9:30 AM – 1:30 PM, 4:30 PM – 7:30 PM",1
Dr Rohit Kansal,orthopaedics,rohini,28.735,77.0985,1000.0,4.6,Via Clinic,"Sector 29, Rohini, Delhi",Tue–Sun | 10:00 AM – 6:00 PM,1
Dr Kamal Khurana,orthopaedics,rohini,28.726,77.1098,1000.0,4.0,Via Clinic,"Sector 15, Rohini, Delhi",Tue–Sun | 10:00 AM – 6:00 PM,1
Bansal Bone & Joint Clinic,orthopaedics,rohini,28.7238,77.1137,800.0,4.4,Via Clinic,"Sector 9, Rohini, Delhi","Mon–Sat | 9:30 AM – 1:30 PM, 4:30 PM – 7:30 PM",1
Dr Rajat Chopra,neurology,rohini,28.715,77.1,1000.0,4.1,Via Clinic / Practo,"Sector 9, Rohini, Delhi",Mon–Fri | 9:00 AM – 2:00 PM,1
Dr Jaideep Bansal,neurology,rohini,28.7165,77.095,1500.0,4.2,Hospital Helpline,"Saroj Hospital, Rohini, Delhi",Mon–Fri | 9:00 AM – 2:00 PM,1
Dr Ashutosh Gupta,neurology,rohini,28.708,77.102,1500.0,4.6,Via Clinic,"Sector 22, Rohini, Delhi","Mon–Sat | 9:30 AM – 1:30 PM, 4:30 PM – 7:30 PM",1
Dr Vipin Satija,neurology,rohini,28.714,77.0955,1000.0,4.4,Via Practo,"Rohini, Delhi",Mon–Sat | 11:00 AM – 3:00 PM,1
Dr Shailesh Jain,neurology,rohini,28.715,77.096,800.0,4.2,Via Practo,"Rohini, Delhi","Mon–Sat | 9:30 AM – 1:30 PM, 4:30 PM – 7:30 PM",1
Dr K K Jindal,neurology,rohini,28.712,77.0945,1000.0,3.9,Via Practo,"Rohini, Delhi","Mon–Sat | 10:00 AM – 1:00 PM, 5:00 PM – 8:00 PM",1
Dr Manoj Khanal,neurology,rohini,28.7125,77.0952,1500.0,4.7,Via Practo,"Rohini, Delhi","Mon–Sat | 9:30 AM – 1:30 PM, 4:30 PM – 7:30 PM",1
Dr Sunil Kumar Baranwal,neurology,rohini,28.713,77.0958,1500.0,4.2,Via Practo,"Rohini, Delhi",Mon–Fri | 9:00 AM – 2:00 PM,1
Dr Himank Goyal,neurology,rohini,28.7115,77.0953,1200.0,4.8,Via Practo,"Rohini, Delhi",Tue–Sun | 10:00 AM – 6:00 PM,1
The Neurology Clinic,neurology,rohini,28.716,77.097,1500.0,4.6,Via Clinic,"Rohini, Delhi",Mon–Fri | 9:00 AM – 2:00 PM,1
Dr Amit Malhotra,dermatology,dwarka,28.579661,77.038037,1200.0,4.2,+91-921887050,"Skin Clinic / Hospital, Dwarka, Delhi","Mon–Sat | 9:30 AM – 1:30 PM, 4:30 PM – 7:30 PM",1
Dr Seema Kapoor,dermatology,dwarka,28.582979,77.051694,1500.0,4.7,+91-913573244,"Skin Clinic / Hospital, Dwarka, Delhi","Mon–Sat | 9:30 AM – 1:30 PM, 4:30 PM – 7:30 PM",1
Dr Richa Bhatia,dermatology,dwarka,28.589968,77.058604,900.0,4.9,+91-932037417,"Skin Clinic / Hospital, Dwarka, Delhi","Mon–Sat | 9:30 AM – 1:30 PM, 4:30 PM – 7:30 PM",1
Dr Naveen Arora,dermatology,dwarka,28.603658,77.031181,1500.0,3.8,+91-903914341,"Skin Clinic / Hospital, Dwarka, Delhi","Mon–Sat | 9:30 AM – 1:30 PM, 4:30 PM – 7:30 PM",1
Dr Priya Sethi,dermatology,dwarka,28.607859,77.051337,1500.0,4.5,+91-978682770,"Skin Clinic / Hospital, Dwarka, Delhi","Mon–Sat | 9:30 AM – 1:30 PM, 4:30 PM – 7:30 PM",1
Dr Kavita Rao,dermatology,dwarka,28.589933,77.057677,900.0,4.0,+91-970559978,"Skin Clinic / Hospital, Dwarka, Delhi","Mon–Sat | 9:30 AM – 1:30 PM, 4:30 PM – 7:30 PM",1
Dr Manish Khurana,dermatology,dwarka,28.580045,77.051618,1500.0,4.7,+91-971445526,"Skin Clinic / Hospital, Dwarka, Delhi","Mon–Sat | 9:30 AM – 1:30 PM, 4:30 PM – 7:30 PM",1
Dr Ruchi Verma,dermatology,dwarka,28.57927,77.045997,1200.0,4.1,+91-922357687,"Skin Clinic / Hospital, Dwarka, Delhi","Mon–Sat | 9:30 AM – 1:30 PM, 4:30 PM – 7:30 PM",1
Dr Pallavi Mehra,dermatology,dwarka,28.603205,77.058273,500.0,4.8,+91-944146315,"Skin Clinic / Hospital, Dwarka, Delhi","Mon–Sat | 9:30 AM – 1:30 PM, 4:30 PM – 7:30 PM",1
Dr Sunita Chawla,dermatology,dwarka,28.577211,77.03354,1200.0,4.8,+91-924964469,"Skin Clinic / Hospital, Dwarka, Delhi","Mon–Sat | 9:30 AM – 1:30 PM, 4:30 PM – 7:30 PM",1
Dr Ankita Grover,dermatology,dwarka,28.587984,77.050946,1500.0,4.4,+91-946123616,"Skin Clinic / Hospital, Dwarka, Delhi","Mon–Sat | 9:30 AM – 1:30 PM, 4:30 PM – 7:30 PM",1
Dr Geeta Nair,dermatology,dwarka,28.604501,77.051179,500.0,4.4,+91-987137705,"Skin Clinic / Hospital, Dwarka, Delhi","Mon–Sat | 9:30 AM – 1:30 PM, 4:30 PM – 7:30 PM",1
Dr Pooja Luthra,dermatology,dwarka,28.594407,77.039334,1200.0,3.9,+91-997578101,"Skin Clinic / Hospital, Dwarka, Delhi","Mon–Sat | 9:30 AM – 1:30 PM, 4:30 PM – 7:30 PM",1
Dr Neha Batra,dermatology,dwarka,28.605034,77.044965,2000.0,4.9,+91-987404162,"Skin Clinic / Hospital, Dwarka, Delhi","Mon–Sat | 9:30 AM – 1:30 PM, 4:30 PM – 7:30 PM",1
Dr Sonal Gupta,dermatology,dwarka,28.576854,77.048289,900.0,4.6,+91-979285626,"Skin Clinic / Hospital, Dwarka, Delhi","Mon–Sat | 9:30 AM – 1:30 PM, 4:30 PM – 7:30 PM",1
Dr Rohit Jain,dermatology,dwarka,28.581566,77.032862,1500.0,4.3,+91-958734172,"Skin Clinic / Hospital, Dwarka, Delhi","Mon–Sat | 9:30 AM – 1:30 PM, 4:30 PM – 7:30 PM",1
Dr Sanjay Singh,dermatology,dwarka,28.586744,77.031369,500.0,3.9,+91-922683113,"Skin Clinic / Hospital, Dwarka, Delhi","Mon–Sat | 9:30 AM – 1:30 PM, 4:30 PM – 7:30 PM",1
Dr Maya Sharma,dermatology,dwarka,28.602485,77.062709,1200.0,3.9,+91-915169160,"Skin Clinic / Hospital, Dwarka, Delhi","Mon–Sat | 9:30 AM – 1:30 PM, 4:30 PM – 7:30 PM",1
Dr Ritu Anand,dermatology,dwarka,28.582457,77.052413,900.0,4.5,+91-984003604,"Skin Clinic / Hospital, Dwarka, Delhi","Mon–Sat | 9:30 AM – 1:30 PM, 4:30 PM – 7:30 PM",1
Dr Kiran Kaur,dermatology,dwarka,28.592981,77.041403,700.0,4.1,+91-907926999,"Skin Clinic / Hospital, Dwarka, Delhi","Mon–Sat | 9:30 AM – 1:30 PM, 4:30 PM – 7:30 PM",1
Dr Alok Mehta,dermatology,dwarka,28.592167,77.063098,900.0,4.7,+91-946812947,"Skin Clinic / Hospital, Dwarka, Delhi","Mon–Sat | 9:30 AM – 1:30 PM, 4:30 PM – 7:30 PM",1
Dr Shalini Gupta,dermatology,dwarka,28.594003,77.0393,1500.0,4.2,+91-983703920,"Skin Clinic / Hospital, Dwarka, Delhi","Mon–Sat | 9:30 AM – 1:30 PM, 4:30 PM – 7:30 PM",1
Dr Ayesha Khan,dermatology,dwarka,28.602507,77.04369,1500.0,3.9,+91-907354066,"Skin Clinic / Hospital, Dwarka, Delhi","Mon–Sat | 9:30 AM – 1:30 PM, 4:30 PM – 7:30 PM",1
Dr Deepak Bansal,dermatology,dwarka,28.599897,77.030122,700.0,4.1,+91-965447405,"Skin Clinic / Hospital, Dwarka, Delhi","Mon–Sat | 9:30 AM – 1:30 PM, 4:30 PM – 7:30 PM",1
Dr Ishita Kapoor,dermatology,dwarka,28.603877,77.042036,700.0,4.8,+91-975662050,"Skin Clinic / Hospital, Dwarka, Delhi","Mon–Sat | 9:30 AM – 1:30 PM, 4:30 PM – 7:30 PM",1
Dr Charu Aggarwal,dermatology,dwarka,28.597458,77.03255,2000.0,4.2,+91-991728865,"Skin Clinic / Hospital, Dwarka, Delhi","Mon–Sat | 9:30 AM – 1:30 PM, 4:30 PM – 7:30 PM",1
Dr Saurabh Jain,dermatology,dwarka,28.584387,77.034035,700.0,4.1,+91-998552575,"Skin Clinic / Hospital, Dwarka, Delhi","Mon–Sat | 9:30 AM – 1:30 PM, 4:30 PM – 7:30 PM",1
Dr Meenal Arora,dermatology,dwarka,28.596869,77.053625,2000.0,4.7,+91-940548715,"Skin Clinic / Hospital, Dwarka, Delhi","Mon–Sat | 9:30 AM – 1:30 PM, 4:30 PM – 7:30 PM",1
Dr Tarun Khanna,dermatology,dwarka,28.590437,77.036806,900.0,4.6,+91-939233012,"Skin Clinic / Hospital, Dwarka, Delhi","Mon–Sat | 9:30 AM – 1:30 PM, 4:30 PM – 7:30 PM",1
Dr Pinky Verma,dermatology,dwarka,28.580268,77.058844,500.0,3.8,+91-945667140,"Skin Clinic / Hospital, Dwarka, Delhi","Mon–Sat | 9:30 AM – 1:30 PM, 4:30 PM – 7:30 PM",1
Dr Namita Goyal,dermatology,dwarka,28.601629,77.031414,500.0,4.7,+91-992022421,"Skin Clinic / Hospital, Dwarka, Delhi","Mon–Sat | 9:30 AM – 1:30 PM, 4:30 PM – 7:30 PM",1
Dr Bhavya Suri,dermatology,dwarka,28.608162,77.049547,500.0,4.0,+91-921438910,"Skin Clinic / Hospital, Dwarka, Delhi","Mon–Sat | 9:30 AM – 1:30 PM, 4:30 PM – 7:30 PM",1
Dr Kriti Malhotra,dermatology,dwarka,28.583935,77.061318,1200.0,4.8,+91-912542892,"Skin Clinic / Hospital, Dwarka, Delhi","Mon–Sat | 9:30 AM – 1:30 PM, 4:30 PM – 7:30 PM",1
Dr Nitin Sehgal,dermatology,dwarka,28.601249,77.053778,1500.0,4.8,+91-933906052,"Skin Clinic / Hospital, Dwarka, Delhi","Mon–Sat | 9:30 AM – 1:30 PM, 4:30 PM – 7:30 PM",1
Dr Anushka Jain,dermatology,dwarka,28.601967,77.065602,2000.0,4.1,+91-995218744,"Skin Clinic / Hospital, Dwarka, Delhi","Mon–Sat | 9:30 AM – 1:30 PM, 4:30 PM – 7:30 PM",1
Dr Varsha Goel,dermatology,dwarka,28.585402,77.052314,700.0,4.8,+91-918146028,"Skin Clinic / Hospital, Dwarka, Delhi","Mon–Sat | 9:30 AM – 1:30 PM, 4:30 PM – 7:30 PM",1
Dr Puneet Sharma,dermatology,dwarka,28.611463,77.033196,1500.0,4.3,+91-951831691,"Skin Clinic / Hospital, Dwarka, Delhi","Mon–Sat | 9:30 AM – 1:30 PM, 4:30 PM – 7:30 PM",1
Dr Divya Khurana,dermatology,dwarka,28.604557,77.037948,1200.0,4.1,+91-926013568,"Skin Clinic / Hospital, Dwarka, Delhi","Mon–Sat | 9:30 AM – 1:30 PM, 4:30 PM – 7:30 PM",1
Dr Rakesh Sood,dermatology,dwarka,28.604372,77.039014,700.0,3.9,+91-948036612,"Skin Clinic / Hospital, Dwarka, Delhi","Mon–Sat | 9:30 AM – 1:30 PM, 4:30 PM – 7:30 PM",1
Dr Monika Tandon,dermatology,dwarka,28.587042,77.032222,500.0,4.0,+91-937353172,"Skin Clinic / Hospital, Dwarka, Delhi","Mon–Sat | 9:30 AM – 1:30 PM, 4:30 PM – 7:30 PM",1
Dr Vikas Gupta,dermatology,krishna nagar,28.64841,77.266074,1500.0,4.1,+91-936444516,"Skin Clinic / Hospital, Krishna Nagar, Delhi","Mon–Sat | 9:30 AM – 1:30 PM, 4:30 PM – 7:30 PM",1
Dr Alka Sharma,dermatology,krishna nagar,28.648335,77.28739,1200.0,4.6,+91-943205457,"Skin Clinic / Hospital, Krishna Nagar, Delhi","Mon–Sat | 9:30 AM – 1:30 PM, 4:30 PM – 7:30 PM",1
Dr Ramesh Khanna,dermatology,krishna nagar,28.655652,77.299064,2000.0,4.9,+91-928232809,"Skin Clinic / Hospital, Krishna Nagar, Delhi","Mon–Sat | 9:30 AM – 1:30 PM, 4:30 PM – 7:30 PM",1
Dr Sangeeta Verma,dermatology,krishna nagar,28.647193,77.300474,1200.0,3.9,+91-990117258,"Skin Clinic / Hospital, Krishna Nagar, Delhi","Mon–Sat | 9:30 AM – 1:30 PM, 4:30 PM – 7:30 PM",1
Dr Neetu Chawla,dermatology,krishna nagar,28.64231,77.286909,700.0,3.9,+91-960555485,"Skin Clinic / Hospital, Krishna Nagar, Delhi","Mon–Sat | 9:30 AM – 1:30 PM, 4:30 PM – 7:30 PM",1
Dr Aarti Joshi,dermatology,krishna nagar,28.63945,77.268892,900.0,4.7,+91-944993442,"Skin Clinic / Hospital, Krishna Nagar, Delhi","Mon–Sat | 9:30 AM – 1:30 PM, 4:30 PM – 7:30 PM",1
Dr Tanya Kapoor,dermatology,krishna nagar,28.644692,77.290729,1200.0,4.4,+91-900885230,"Skin Clinic / Hospital, Krishna Nagar, Delhi","Mon–Sat | 9:30 AM – 1:30 PM, 4:30 PM – 7:30 PM",1
Dr Deepak Yadav,dermatology,krishna nagar,28.63729,77.293712,700.0,4.1,+91-919375400,"Skin Clinic / Hospital, Krishna Nagar, Delhi","Mon–Sat | 9:30 AM – 1:30 PM, 4:30 PM – 7:30 PM",1
Dr Nisha Malhotra,dermatology,krishna nagar,28.649631,77.266799,500.0,4.1,+91-941277176,"Skin Clinic / Hospital, Krishna Nagar, Delhi","Mon–Sat | 9:30 AM – 1:30 PM, 4:30 PM – 7:30 PM",1
Dr Rekha Bansal,dermatology,krishna nagar,28.653682,77.296624,1500.0,4.9,+91-945071338,"Skin Clinic / Hospital, Krishna Nagar, Delhi","Mon–Sat | 9:30 AM – 1:30 PM, 4:30 PM – 7:30 PM",1
Dr Varun Mehra,dermatology,krishna nagar,28.655637,77.266583,500.0,4.3,+91-932821618,"Skin Clinic / Hospital, Krishna Nagar, Delhi","Mon–Sat | 9:30 AM – 1:30 PM, 4:30 PM – 7:30 PM",1
Dr Farah Khan,dermatology,krishna nagar,28.644184,77.279298,700.0,4.3,+91-988534402,"Skin Clinic / Hospital, Krishna Nagar, Delhi","Mon–Sat | 9:30 AM – 1:30 PM, 4:30 PM – 7:30 PM",1
Dr Bhavna Suri,dermatology,krishna nagar,28.657502,77.269111,700.0,4.6,+91-928273477,"Skin Clinic / Hospital, Krishna Nagar, Delhi","Mon–Sat | 9:30 AM – 1:30 PM, 4:30 PM – 7:30 PM",1
Dr Sujata Gill,dermatology,krishna nagar,28.661828,77.29282,2000.0,4.1,+91-932719834,"Skin Clinic / Hospital, Krishna Nagar, Delhi","Mon–Sat | 9:30 AM – 1:30 PM, 4:30 PM – 7:30 PM",1
Dr Pankaj Arora,dermatology,krishna nagar,28.664172,77.280571,900.0,3.8,+91-913107227,"Skin Clinic / Hospital, Krishna Nagar, Delhi","Mon–Sat | 9:30 AM – 1:30 PM, 4:30 PM – 7:30 PM",1
Dr Hetal Shah,dermatology,krishna nagar,28.646087,77.271201,2000.0,4.0,+91-981398598,"Skin Clinic / Hospital, Krishna Nagar, Delhi","Mon–Sat | 9:30 AM – 1:30 PM, 4:30 PM – 7:30 PM",1
Dr Isha Mittal,dermatology,krishna nagar,28.667817,77.301037,900.0,4.0,+91-951669754,"Skin Clinic / Hospital, Krishna Nagar, Delhi","Mon–Sat | 9:30 AM – 1:30 PM, 4:30 PM – 7:30 PM",1
Dr Kiranpreet Kaur,dermatology,krishna nagar,28.652381,77.289827,700.0,4.0,+91-950997585,"Skin Clinic / Hospital, Krishna Nagar, Delhi","Mon–Sat | 9:30 AM – 1:30 PM, 4:30 PM – 7:30 PM",1
Dr Nandita Roy,dermatology,krishna nagar,28.660209,77.266008,2000.0,4.2,+91-933888215,"Skin Clinic / Hospital, Krishna Nagar, Delhi","Mon–Sat | 9:30 AM – 1:30 PM, 4:30 PM – 7:30 PM",1
Dr Mona Jain,dermatology,krishna nagar,28.647925,77.268516,500.0,3.9,+91-949332682,"Skin Clinic / Hospital, Krishna Nagar, Delhi","Mon–Sat | 9:30 AM – 1:30 PM, 4:30 PM – 7:30 PM",1
Dr Ashok Aggarwal,dermatology,krishna nagar,28.638919,77.278289,2000.0,3.9,+91-916828798,"Skin Clinic / Hospital, Krishna Nagar, Delhi","Mon–Sat | 9:30 AM – 1:30 PM, 4:30 PM – 7:30 PM",1
Dr Smita Goel,dermatology,krishna nagar,28.655733,77.296354,1200.0,4.6,+91-981748800,"Skin Clinic / Hospital, Krishna Nagar, Delhi","Mon–Sat | 9:30 AM – 1:30 PM, 4:30 PM – 7:30 PM",1
Dr Prerna Bansal,dermatology,krishna nagar,28.636365,77.288959,900.0,4.3,+91-925057012,"Skin Clinic / Hospital, Krishna Nagar, Delhi","Mon–Sat | 9:30 AM – 1:30 PM, 4:30 PM – 7:30 PM",1
Dr Neelam Jain,dermatology,krishna nagar,28.643768,77.276073,1500.0,4.8,+91-957443806,"Skin Clinic / Hospital, Krishna Nagar, Delhi","Mon–Sat | 9:30 AM – 1:30 PM, 4:30 PM – 7:30 PM",1
Dr Rajat Verma,dermatology,krishna nagar,28.643875,77.284286,1500.0,3.9,+91-900691330,"Skin Clinic / Hospital, Krishna Nagar, Delhi","Mon–Sat | 9:30 AM – 1:30 PM, 4:30 PM – 7:30 PM",1
Dr Payal Khanna,dermatology,krishna nagar,28.634211,77.270043,900.0,4.5,+91-976908291,"Skin Clinic / Hospital, Krishna Nagar, Delhi","Mon–Sat | 9:30 AM – 1:30 PM, 4:30 PM – 7:30 PM",1
Dr Suman Arora,dermatology,krishna nagar,28.658133,77.267567,900.0,4.4,+91-978445418,"Skin Clinic / Hospital, Krishna Nagar, Delhi","Mon–Sat | 9:30 AM – 1:30 PM, 4:30 PM – 7:30 PM",1
Dr Anil Saxena,dermatology,krishna nagar,28.647758,77.285949,1200.0,4.8,+91-988801172,"Skin Clinic / Hospital, Krishna Nagar, Delhi","Mon–Sat | 9:30 AM – 1:30 PM, 4:30 PM – 7:30 PM",1
Dr Garima Gupta,dermatology,krishna nagar,28.66184,77.280371,2000.0,4.4,+91-987348375,"Skin Clinic / Hospital, Krishna Nagar, Delhi","Mon–Sat | 9:30 AM – 1:30 PM, 4:30 PM – 7:30 PM",1
Dr Sheetal Bhatia,dermatology,krishna nagar,28.644113,77.283263,1500.0,3.9,+91-926923633,"Skin Clinic / Hospital, Krishna Nagar, Delhi","Mon–Sat | 9:30 AM – 1:30 PM, 4:30 PM – 7:30 PM",1
Dr Ruchi Mehta,dermatology,krishna nagar,28.653182,77.269938,700.0,4.7,+91-948409957,"Skin Clinic / Hospital, Krishna Nagar, Delhi","Mon–Sat | 9:30 AM – 1:30 PM, 4:30 PM – 7:30 PM",1
Dr Shweta Arora,dermatology,krishna nagar,28.66033,77.272824,500.0,4.4,+91-936225526,"Skin Clinic / Hospital, Krishna Nagar, Delhi","Mon–Sat | 9:30 AM – 1:30 PM, 4:30 PM – 7:30 PM",1
Dr Komal Jain,dermatology,krishna nagar,28.647077,77.276109,2000.0,3.9,+91-935071934,"Skin Clinic / Hospital, Krishna Nagar, Delhi","Mon–Sat | 9:30 AM – 1:30 PM, 4:30 PM – 7:30 PM",1
Dr Nitin Arora,dermatology,krishna nagar,28.665333,77.286635,1500.0,4.0,+91-997217591,"Skin Clinic / Hospital, Krishna Nagar, Delhi","Mon–Sat | 9:30 AM – 1:30 PM, 4:30 PM – 7:30 PM",1
Dr Ankush Malhotra,dermatology,krishna nagar,28.661649,77.300291,500.0,4.3,+91-971158022,"Skin Clinic / Hospital, Krishna Nagar, Delhi","Mon–Sat | 9:30 AM – 1:30 PM, 4:30 PM – 7:30 PM",1
Dr Sapna Goyal,dermatology,krishna nagar,28.659626,77.273532,500.0,4.7,+91-926465565,"Skin Clinic / Hospital, Krishna Nagar, Delhi","Mon–Sat | 9:30 AM – 1:30 PM, 4:30 PM – 7:30 PM",1
Dr Sunil Verma,dermatology,krishna nagar,28.661545,77.295621,700.0,4.5,+91-997233804,"Skin Clinic / Hospital, Krishna Nagar, Delhi","Mon–Sat | 9:30 AM – 1:30 PM, 4:30 PM – 7:30 PM",1
Dr Megha Bansal,dermatology,krishna nagar,28.667878,77.29166,700.0,4.5,+91-926741707,"Skin Clinic / Hospital, Krishna Nagar, Delhi","Mon–Sat | 9:30 AM – 1:30 PM, 4:30 PM – 7:30 PM",1
Dr Anjana Khurana,dermatology,krishna nagar,28.636453,77.293206,1200.0,4.4,+91-933139624,"Skin Clinic / Hospital, Krishna Nagar, Delhi","Mon–Sat | 9:30 AM – 1:30 PM, 4:30 PM – 7:30 PM",1
Dr Vandana Sethi,dermatology,krishna nagar,28.648494,77.287374,500.0,4.1,+91-943977695,"Skin Clinic / Hospital, Krishna Nagar, Delhi","Mon–Sat | 9:30 AM – 1:30 PM, 4:30 PM – 7:30 PM",1
Dr Karan Oberoi,dermatology,rohini,28.727498,77.103209,1200.0,4.1,+91-923964732,"Skin Clinic / Hospital, Rohini, Delhi","Mon–Sat | 9:30 AM – 1:30 PM, 4:30 PM – 7:30 PM",1
Dr Lata Tandon,dermatology,rohini,28.720061,77.096742,900.0,4.8,+91-911654237,"Skin Clinic / Hospital, Rohini, Delhi","Mon–Sat | 9:30 AM – 1:30 PM, 4:30 PM – 7:30 PM",1
Dr Sheetal Kapoor,dermatology,rohini,28.716641,77.113754,1500.0,4.6,+91-987819420,"Skin Clinic / Hospital, Rohini, Delhi","Mon–Sat | 9:30 AM – 1:30 PM, 4:30 PM – 7:30 PM",1
Dr Arunima Das,dermatology,rohini,28.740362,77.112085,900.0,4.3,+91-900544417,"Skin Clinic / Hospital, Rohini, Delhi","Mon–Sat | 9:30 AM – 1:30 PM, 4:30 PM – 7:30 PM",1
Dr Meera Nair,dermatology,rohini,28.722208,77.09296,700.0,4.8,+91-935323718,"Skin Clinic / Hospital, Rohini, Delhi","Mon–Sat | 9:30 AM – 1:30 PM, 4:30 PM – 7:30 PM",1
Dr Vivek Bedi,dermatology,rohini,28.737684,77.112052,1500.0,4.1,+91-965523225,"Skin Clinic / Hospital, Rohini, Delhi","Mon–Sat | 9:30 AM – 1:30 PM, 4:30 PM – 7:30 PM",1
Dr Divya Chawla,dermatology,rohini,28.718332,77.124644,900.0,4.1,+91-933032831,"Skin Clinic / Hospital, Rohini, Delhi","Mon–Sat | 9:30 AM – 1:30 PM, 4:30 PM – 7:30 PM",1
Dr Raman Sood,dermatology,rohini,28.729968,77.123397,1500.0,3.8,+91-943408246,"Skin Clinic / Hospital, Rohini, Delhi","Mon–Sat | 9:30 AM – 1:30 PM, 4:30 PM – 7:30 PM",1
Dr Bharti Mehta,dermatology,rohini,28.716428,77.122637,500.0,4.5,+91-952387734,"Skin Clinic / Hospital, Rohini, Delhi","Mon–Sat | 9:30 AM – 1:30 PM, 4:30 PM – 7:30 PM",1
Dr Kajal Verma,dermatology,rohini,28.712908,77.126519,1200.0,4.3,+91-964691932,"Skin Clinic / Hospital, Rohini, Delhi","Mon–Sat | 9:30 AM – 1:30 PM, 4:30 PM – 7:30 PM",1
Dr Nikhil Saini,dermatology,rohini,28.720068,77.106026,2000.0,4.2,+91-987422527,"Skin Clinic / Hospital, Rohini, Delhi","Mon–Sat | 9:30 AM – 1:30 PM, 4:30 PM – 7:30 PM",1
Dr Pallavi Dixit,dermatology,rohini,28.729265,77.117601,1200.0,4.3,+91-946832269,"Skin Clinic / Hospital, Rohini, Delhi","Mon–Sat | 9:30 AM – 1:30 PM, 4:30 PM – 7:30 PM",1
Dr Sejal Agarwal,dermatology,rohini,28.733226,77.109592,700.0,3.9,+91-936792494,"Skin Clinic / Hospital, Rohini, Delhi","Mon–Sat | 9:30 AM – 1:30 PM, 4:30 PM – 7:30 PM",1
Dr Gaurav Chopra,dermatology,rohini,28.723304,77.118103,1500.0,4.7,+91-948116090,"Skin Clinic / Hospital, Rohini, Delhi","Mon–Sat | 9:30 AM – 1:30 PM, 4:30 PM – 7:30 PM",1
Dr Anju Bhatia,dermatology,rohini,28.707563,77.123587,700.0,4.5,+91-959312247,"Skin Clinic / Hospital, Rohini, Delhi","Mon–Sat | 9:30 AM – 1:30 PM, 4:30 PM – 7:30 PM",1
Dr Rupali Sharma,dermatology,rohini,28.71017,77.102899,700.0,3.9,+91-982154837,"Skin Clinic / Hospital, Rohini, Delhi","Mon–Sat | 9:30 AM – 1:30 PM, 4:30 PM – 7:30 PM",1
Dr Naveen Kumar,dermatology,rohini,28.739457,77.119917,1200.0,3.9,+91-979876187,"Skin Clinic / Hospital, Rohini, Delhi","Mon–Sat | 9:30 AM – 1:30 PM, 4:30 PM – 7:30 PM",1
Dr Pooja Bhatt,dermatology,rohini,28.717591,77.093088,1500.0,4.3,+91-973131980,"Skin Clinic / Hospital, Rohini, Delhi","Mon–Sat | 9:30 AM – 1:30 PM, 4:30 PM – 7:30 PM",1
Dr Mansi Gupta,dermatology,rohini,28.729968,77.099587,2000.0,4.1,+91-953061607,"Skin Clinic / Hospital, Rohini, Delhi","Mon–Sat | 9:30 AM – 1:30 PM, 4:30 PM – 7:30 PM",1
Dr Ritu Verma,dermatology,rohini,28.71585,77.10149,1500.0,3.9,+91-976709542,"Skin Clinic / Hospital, Rohini, Delhi","Mon–Sat | 9:30 AM – 1:30 PM, 4:30 PM – 7:30 PM",1
Dr Amit Sethi,dermatology,rohini,28.740019,77.113411,900.0,3.9,+91-973879404,"Skin Clinic / Hospital, Rohini, Delhi","Mon–Sat | 9:30 AM – 1:30 PM, 4:30 PM – 7:30 PM",1
Dr Neelima Jain,dermatology,rohini,28.733578,77.124011,500.0,4.8,+91-936795839,"Skin Clinic / Hospital, Rohini, Delhi","Mon–Sat | 9:30 AM – 1:30 PM, 4:30 PM – 7:30 PM",1
Dr Sakshi Malhotra,dermatology,rohini,28.725772,77.094151,1500.0,4.4,+91-985011839,"Skin Clinic / Hospital, Rohini, Delhi","Mon–Sat | 9:30 AM – 1:30 PM, 4:30 PM – 7:30 PM",1
Dr Harsh Vardhan,dermatology,rohini,28.709504,77.101153,700.0,4.7,+91-928278873,"Skin Clinic / Hospital, Rohini, Delhi","Mon–Sat | 9:30 AM – 1:30 PM, 4:30 PM – 7:30 PM",1
Dr Shikha Goel,dermatology,rohini,28.737244,77.124415,700.0,4.2,+91-992743039,"Skin Clinic / Hospital, Rohini, Delhi","Mon–Sat | 9:30 AM – 1:30 PM, 4:30 PM – 7:30 PM",1
Dr Rachit Arora,dermatology,rohini,28.714804,77.126563,900.0,3.9,+91-973982930,"Skin Clinic / Hospital, Rohini, Delhi","Mon–Sat | 9:30 AM – 1:30 PM, 4:30 PM – 7:30 PM",1
Dr Tina Bansal,dermatology,rohini,28.724819,77.10119,900.0,4.1,+91-921566494,"Skin Clinic / Hospital, Rohini, Delhi","Mon–Sat | 9:30 AM – 1:30 PM, 4:30 PM – 7:30 PM",1
Dr Deepanshu Jain,dermatology,rohini,28.717655,77.098112,1200.0,4.2,+91-918738146,"Skin Clinic / Hospital, Rohini, Delhi","Mon–Sat | 9:30 AM – 1:30 PM, 4:30 PM – 7:30 PM",1
Dr Komal Aggarwal,dermatology,rohini,28.721092,77.123755,2000.0,4.7,+91-908434624,"Skin Clinic / Hospital, Rohini, Delhi","Mon–Sat | 9:30 AM – 1:30 PM, 4:30 PM – 7:30 PM",1
Dr Isha Khanna,dermatology,rohini,28.719413,77.095996,900.0,4.7,+91-958373114,"Skin Clinic / Hospital, Rohini, Delhi","Mon–Sat | 9:30 AM – 1:30 PM, 4:30 PM – 7:30 PM",1
Dr Varun Batra,dermatology,rohini,28.738097,77.11635,1200.0,4.6,+91-980319568,"Skin Clinic / Hospital, Rohini, Delhi","Mon–Sat | 9:30 AM – 1:30 PM, 4:30 PM – 7:30 PM",1
Dr Poonam Arora,dermatology,rohini,28.726907,77.120593,700.0,4.2,+91-911742972,"Skin Clinic / Hospital, Rohini, Delhi","Mon–Sat | 9:30 AM – 1:30 PM, 4:30 PM – 7:30 PM",1
Dr Ananya Mehta,dermatology,rohini,28.720235,77.099059,900.0,3.9,+91-985462239,"Skin Clinic / Hospital, Rohini, Delhi","Mon–Sat | 9:30 AM – 1:30 PM, 4:30 PM – 7:30 PM",1
Dr Rajat Khurana,dermatology,rohini,28.717388,77.099882,700.0,4.6,+91-900574394,"Skin Clinic / Hospital, Rohini, Delhi","Mon–Sat | 9:30 AM – 1:30 PM, 4:30 PM – 7:30 PM",1
Dr Nivedita Gupta,dermatology,rohini,28.712884,77.102939,1500.0,4.7,+91-916174411,"Skin Clinic / Hospital, Rohini, Delhi","Mon–Sat | 9:30 AM – 1:30 PM, 4:30 PM – 7:30 PM",1
Dr Sonal Arora,dermatology,rohini,28.724068,77.112755,1200.0,4.8,+91-924399173,"Skin Clinic / Hospital, Rohini, Delhi","Mon–Sat | 9:30 AM – 1:30 PM, 4:30 PM – 7:30 PM",1
Dr Keshav Jain,dermatology,rohini,28.73084,77.111691,500.0,4.4,+91-939107358,"Skin Clinic / Hospital, Rohini, Delhi","Mon–Sat | 9:30 AM – 1:30 PM, 4:30 PM – 7:30 PM",1
Dr Mehul Sood,dermatology,rohini,28.720808,77.126483,500.0,4.8,+91-984084702,"Skin Clinic / Hospital, Rohini, Delhi","Mon–Sat | 9:30 AM – 1:30 PM, 4:30 PM – 7:30 PM",1
Dr Pratima Saxena,dermatology,rohini,28.714672,77.112631,1200.0,4.7,+91-956139821,"Skin Clinic / Hospital, Rohini, Delhi","Mon–Sat | 9:30 AM – 1:30 PM, 4:30 PM – 7:30 PM",1
Dr Shobhit Gupta,dermatology,rohini,28.716321,77.126218,2000.0,4.8,+91-966264120,"Skin Clinic / Hospital, Rohini, Delhi","Mon–Sat | 9:30 AM – 1:30 PM, 4:30 PM – 7:30 PM",1
Dr Anil Gupta,dermatology,shahdara,28.68134,77.302222,500.0,4.8,+91-967049715,"Skin Clinic / Hospital, Shahdara, Delhi","Mon–Sat | 9:30 AM – 1:30 PM, 4:30 PM – 7:30 PM",1
Dr Sonalika Sharma,dermatology,shahdara,28.667952,77.281932,2000.0,4.4,+91-931793111,"Skin Clinic / Hospital, Shahdara, Delhi","Mon–Sat | 9:30 AM – 1:30 PM, 4:30 PM – 7:30 PM",1
Dr Pratibha Rao,dermatology,shahdara,28.67395,77.29237,900.0,4.6,+91-990583251,"Skin Clinic / Hospital, Shahdara, Delhi","Mon–Sat | 9:30 AM – 1:30 PM, 4:30 PM – 7:30 PM",1
Dr Mukesh Kumar,dermatology,shahdara,28.671529,77.295068,500.0,4.1,+91-954041717,"Skin Clinic / Hospital, Shahdara, Delhi","Mon–Sat | 9:30 AM – 1:30 PM, 4:30 PM – 7:30 PM",1
Dr Suman Lata,dermatology,shahdara,28.670889,77.281312,1200.0,4.2,+91-913899411,"Skin Clinic / Hospital, Shahdara, Delhi","Mon–Sat | 9:30 AM – 1:30 PM, 4:30 PM – 7:30 PM",1
Dr Priyanka Agarwal,dermatology,shahdara,28.676889,77.277565,1500.0,4.8,+91-946264531,"Skin Clinic / Hospital, Shahdara, Delhi","Mon–Sat | 9:30 AM – 1:30 PM, 4:30 PM – 7:30 PM",1
Dr Reena Jain,dermatology,shahdara,28.676678,77.302923,2000.0,3.8,+91-944603661,"Skin Clinic / Hospital, Shahdara, Delhi","Mon–Sat | 9:30 AM – 1:30 PM, 4:30 PM – 7:30 PM",1
Dr Gita Menon,dermatology,shahdara,28.700679,77.293893,700.0,3.8,+91-989898359,"Skin Clinic / Hospital, Shahdara, Delhi","Mon–Sat | 9:30 AM – 1:30 PM, 4:30 PM – 7:30 PM",1
Dr Ankush Gupta,dermatology,shahdara,28.699485,77.288156,2000.0,3.9,+91-973709036,"Skin Clinic / Hospital, Shahdara, Delhi","Mon–Sat | 9:30 AM – 1:30 PM, 4:30 PM – 7:30 PM",1
Dr Megha Verma,dermatology,shahdara,28.694004,77.273318,2000.0,4.4,+91-900603990,"Skin Clinic / Hospital, Shahdara, Delhi","Mon–Sat | 9:30 AM – 1:30 PM, 4:30 PM – 7:30 PM",1
Dr Ritika Khosla,dermatology,shahdara,28.680569,77.292017,1500.0,4.5,+91-992559179,"Skin Clinic / Hospital, Shahdara, Delhi","Mon–Sat | 9:30 AM – 1:30 PM, 4:30 PM – 7:30 PM",1
Dr Yogita Singh,dermatology,shahdara,28.6784,77.294022,700.0,4.4,+91-934295098,"Skin Clinic / Hospital, Shahdara, Delhi","Mon–Sat | 9:30 AM – 1:30 PM, 4:30 PM – 7:30 PM",1
Dr Rakesh Sharma,dermatology,shahdara,28.688882,77.305277,900.0,4.7,+91-990994970,"Skin Clinic / Hospital, Shahdara, Delhi","Mon–Sat | 9:30 AM – 1:30 PM, 4:30 PM – 7:30 PM",1
Dr Shivani Kapoor,dermatology,shahdara,28.673886,77.273848,700.0,4.3,+91-921384895,"Skin Clinic / Hospital, Shahdara, Delhi","Mon–Sat | 9:30 AM – 1:30 PM, 4:30 PM – 7:30 PM",1
Dr Asha Rani,dermatology,shahdara,28.692735,77.300755,2000.0,4.4,+91-974449390,"Skin Clinic / Hospital, Shahdara, Delhi","Mon–Sat | 9:30 AM – 1:30 PM, 4:30 PM – 7:30 PM",1
Dr Nidhi Sehgal,dermatology,shahdara,28.683789,77.296951,500.0,4.0,+91-987121145,"Skin Clinic / Hospital, Shahdara, Delhi","Mon–Sat | 9:30 AM – 1:30 PM, 4:30 PM – 7:30 PM",1
Dr Kamalpreet Kaur,dermatology,shahdara,28.686607,77.299376,2000.0,4.4,+91-993026057,"Skin Clinic / Hospital, Shahdara, Delhi","Mon–Sat | 9:30 AM – 1:30 PM, 4:30 PM – 7:30 PM",1
Dr Harpreet Singh,dermatology,shahdara,28.694912,77.278926,900.0,4.5,+91-954274437,"Skin Clinic / Hospital, Shahdara, Delhi","Mon–Sat | 9:30 AM – 1:30 PM, 4:30 PM – 7:30 PM",1
Dr Neelam Arora,dermatology,shahdara,28.674016,77.292137,2000.0,4.3,+91-945593648,"Skin Clinic / Hospital, Shahdara, Delhi","Mon–Sat | 9:30 AM – 1:30 PM, 4:30 PM – 7:30 PM",1
Dr Sunil Verma,dermatology,shahdara,28.685719,77.275062,1500.0,4.4,+91-906725190,"Skin Clinic / Hospital, Shahdara, Delhi","Mon–Sat | 9:30 AM – 1:30 PM, 4:30 PM – 7:30 PM",1
Dr Amitabh Jain,dermatology,shahdara,28.699648,77.289978,1200.0,4.6,+91-933627791,"Skin Clinic / Hospital, Shahdara, Delhi","Mon–Sat | 9:30 AM – 1:30 PM, 4:30 PM – 7:30 PM",1
Dr Charu Malhotra,dermatology,shahdara,28.666162,77.297571,1500.0,4.3,+91-988149169,"Skin Clinic / Hospital, Shahdara, Delhi","Mon–Sat | 9:30 AM – 1:30 PM, 4:30 PM – 7:30 PM",1
Dr Seema Bansal,dermatology,shahdara,28.699348,77.27978,700.0,4.8,+91-946027731,"Skin Clinic / Hospital, Shahdara, Delhi","Mon–Sat | 9:30 AM – 1:30 PM, 4:30 PM – 7:30 PM",1
Dr Pankaj Saxena,dermatology,shahdara,28.675067,77.300007,1500.0,4.7,+91-993803622,"Skin Clinic / Hospital, Shahdara, Delhi","Mon–Sat | 9:30 AM – 1:30 PM, 4:30 PM – 7:30 PM",1
Dr Renu Aggarwal,dermatology,shahdara,28.669224,77.284117,500.0,3.9,+91-975242669,"Skin Clinic / Hospital, Shahdara, Delhi","Mon–Sat | 9:30 AM – 1:30 PM, 4:30 PM – 7:30 PM",1
Dr Alpana Gupta,dermatology,shahdara,28.67381,77.280371,2000.0,4.2,+91-979139464,"Skin Clinic / Hospital, Shahdara, Delhi","Mon–Sat | 9:30 AM – 1:30 PM, 4:30 PM – 7:30 PM",1
Dr Shilpi Goel,dermatology,shahdara,28.670543,77.283032,1500.0,4.2,+91-971947048,"Skin Clinic / Hospital, Shahdara, Delhi","Mon–Sat | 9:30 AM – 1:30 PM, 4:30 PM – 7:30 PM",1
Dr Rachna Mehta,dermatology,shahdara,28.694711,77.291388,1500.0,3.9,+91-953866016,"Skin Clinic / Hospital, Shahdara, Delhi","Mon–Sat | 9:30 AM – 1:30 PM, 4:30 PM – 7:30 PM",1
Dr Rohini Khanna,dermatology,shahdara,28.696344,77.275637,700.0,4.1,+91-932062338,"Skin Clinic / Hospital, Shahdara, Delhi","Mon–Sat | 9:30 AM – 1:30 PM, 4:30 PM – 7:30 PM",1
Dr Vikas Arora,dermatology,shahdara,28.679073,77.283628,500.0,4.8,+91-938008882,"Skin Clinic / Hospital, Shahdara, Delhi","Mon–Sat | 9:30 AM – 1:30 PM, 4:30 PM – 7:30 PM",1
Dr Bhupesh Goyal,dermatology,shahdara,28.697805,77.275283,700.0,4.8,+91-972225566,"Skin Clinic / Hospital, Shahdara, Delhi","Mon–Sat | 9:30 AM – 1:30 PM, 4:30 PM – 7:30 PM",1
Dr Tanuja Jain,dermatology,shahdara,28.693664,77.306083,500.0,4.0,+91-991433441,"Skin Clinic / Hospital, Shahdara, Delhi","Mon–Sat | 9:30 AM – 1:30 PM, 4:30 PM – 7:30 PM",1
Dr Isha Aggarwal,dermatology,shahdara,28.681527,77.293282,900.0,4.6,+91-941821950,"Skin Clinic / Hospital, Shahdara, Delhi","Mon–Sat | 9:30 AM – 1:30 PM, 4:30 PM – 7:30 PM",1
Dr Kiran Bhatia,dermatology,shahdara,28.68974,77.279684,2000.0,4.0,+91-914267141,"Skin Clinic / Hospital, Shahdara, Delhi","Mon–Sat | 9:30 AM – 1:30 PM, 4:30 PM – 7:30 PM",1
Dr Ankur Sood,dermatology,shahdara,28.676185,77.295443,1200.0,3.9,+91-939374105,"Skin Clinic / Hospital, Shahdara, Delhi","Mon–Sat | 9:30 AM – 1:30 PM, 4:30 PM – 7:30 PM",1
Dr Payal Gupta,dermatology,shahdara,28.689755,77.281441,1200.0,4.5,+91-979637145,"Skin Clinic / Hospital, Shahdara, Delhi","Mon–Sat | 9:30 AM – 1:30 PM, 4:30 PM – 7:30 PM",1
Dr Madhu Arora,dermatology,shahdara,28.671399,77.306802,500.0,4.0,+91-937838805,"Skin Clinic / Hospital, Shahdara, Delhi","Mon–Sat | 9:30 AM – 1:30 PM, 4:30 PM – 7:30 PM",1
Dr Ravinder Khanna,dermatology,shahdara,28.691544,77.27718,1200.0,4.5,+91-954592952,"Skin Clinic / Hospital, Shahdara, Delhi","Mon–Sat | 9:30 AM – 1:30 PM, 4:30 PM – 7:30 PM",1
Dr Neha Goel,dermatology,shahdara,28.695946,77.298086,2000.0,4.1,+91-968515692,"Skin Clinic / Hospital, Shahdara, Delhi","Mon–Sat | 9:30 AM – 1:30 PM, 4:30 PM – 7:30 PM",1
Dr Surbhi Malhotra,dermatology,shahdara,28.690131,77.277266,1200.0,4.8,+91-994898116,"Skin Clinic / Hospital, Shahdara, Delhi","Mon–Sat | 9:30 AM – 1:30 PM, 4:30 PM – 7:30 PM",1
Dr Anil Sharma,ent,dwarka,28.588195,77.040676,900.0,4.4,+91-956672004,"ENT Clinic / Hospital, Dwarka, Delhi","Mon–Sat | 9:30 AM – 1:30 PM, 4:30 PM – 7:30 PM",1
Dr Rohit Verma,ent,dwarka,28.612077,77.03824,1500.0,4.8,+91-932106107,"ENT Clinic / Hospital, Dwarka, Delhi","Mon–Sat | 9:30 AM – 1:30 PM, 4:30 PM – 7:30 PM",1
Dr Vikas Gupta,ent,dwarka,28.605803,77.061285,500.0,3.9,+91-987556425,"ENT Clinic / Hospital, Dwarka, Delhi","Mon–Sat | 9:30 AM – 1:30 PM, 4:30 PM – 7:30 PM",1
Dr Pooja Saxena,ent,dwarka,28.582892,77.057394,500.0,4.5,+91-932123767,"ENT Clinic / Hospital, Dwarka, Delhi","Mon–Sat | 9:30 AM – 1:30 PM, 4:30 PM – 7:30 PM",1
Dr Sanjay Kumar,ent,dwarka,28.601334,77.061146,900.0,3.9,+91-924807659,"ENT Clinic / Hospital, Dwarka, Delhi","Mon–Sat | 9:30 AM – 1:30 PM, 4:30 PM – 7:30 PM",1
Dr Neha Agarwal,ent,dwarka,28.614016,77.065392,700.0,4.5,+91-901959523,"ENT Clinic / Hospital, Dwarka, Delhi","Mon–Sat | 9:30 AM – 1:30 PM, 4:30 PM – 7:30 PM",1
Dr Amit Joshi,ent,dwarka,28.612327,77.040249,900.0,4.2,+91-906197576,"ENT Clinic / Hospital, Dwarka, Delhi","Mon–Sat | 9:30 AM – 1:30 PM, 4:30 PM – 7:30 PM",1
Dr Ritu Kapoor,ent,dwarka,28.591227,77.042115,500.0,4.1,+91-994264909,"ENT Clinic / Hospital, Dwarka, Delhi","Mon–Sat | 9:30 AM – 1:30 PM, 4:30 PM – 7:30 PM",1
Dr Manish Tiwari,ent,dwarka,28.604377,77.03039,500.0,4.2,+91-991786938,"ENT Clinic / Hospital, Dwarka, Delhi","Mon–Sat | 9:30 AM – 1:30 PM, 4:30 PM – 7:30 PM",1
Dr Sunita Raina,ent,dwarka,28.606947,77.038918,900.0,4.0,+91-963951587,"ENT Clinic / Hospital, Dwarka, Delhi","Mon–Sat | 9:30 AM – 1:30 PM, 4:30 PM – 7:30 PM",1
Dr Karan Malhotra,ent,dwarka,28.587996,77.058749,1500.0,4.5,+91-972312354,"ENT Clinic / Hospital, Dwarka, Delhi","Mon–Sat | 9:30 AM – 1:30 PM, 4:30 PM – 7:30 PM",1
Dr Maya Khanna,ent,dwarka,28.604671,77.044923,700.0,4.4,+91-960083798,"ENT Clinic / Hospital, Dwarka, Delhi","Mon–Sat | 9:30 AM – 1:30 PM, 4:30 PM – 7:30 PM",1
Dr Rakesh Bansal,ent,dwarka,28.591559,77.064296,1200.0,4.3,+91-970194370,"ENT Clinic / Hospital, Dwarka, Delhi","Mon–Sat | 9:30 AM – 1:30 PM, 4:30 PM – 7:30 PM",1
Dr Pallavi Mehta,ent,dwarka,28.60878,77.057466,1200.0,4.1,+91-902258434,"ENT Clinic / Hospital, Dwarka, Delhi","Mon–Sat | 9:30 AM – 1:30 PM, 4:30 PM – 7:30 PM",1
Dr Deepak Gupta,ent,dwarka,28.581306,77.052131,1200.0,4.8,+91-941148894,"ENT Clinic / Hospital, Dwarka, Delhi","Mon–Sat | 9:30 AM – 1:30 PM, 4:30 PM – 7:30 PM",1
Dr Shweta Narang,ent,dwarka,28.578264,77.031348,1500.0,4.9,+91-962231553,"ENT Clinic / Hospital, Dwarka, Delhi","Mon–Sat | 9:30 AM – 1:30 PM, 4:30 PM – 7:30 PM",1
Dr Nidhi Sharma,ent,dwarka,28.605108,77.061249,1500.0,4.2,+91-900582373,"ENT Clinic / Hospital, Dwarka, Delhi","Mon–Sat | 9:30 AM – 1:30 PM, 4:30 PM – 7:30 PM",1
Dr Arun Prakash,ent,dwarka,28.589186,77.031756,2000.0,4.7,+91-965743668,"ENT Clinic / Hospital, Dwarka, Delhi","Mon–Sat | 9:30 AM – 1:30 PM, 4:30 PM – 7:30 PM",1
Dr Seema Rao,ent,dwarka,28.611771,77.053478,900.0,4.0,+91-983355123,"ENT Clinic / Hospital, Dwarka, Delhi","Mon–Sat | 9:30 AM – 1:30 PM, 4:30 PM – 7:30 PM",1
Dr Vandana Singh,ent,dwarka,28.613214,77.054495,500.0,4.7,+91-991929021,"ENT Clinic / Hospital, Dwarka, Delhi","Mon–Sat | 9:30 AM – 1:30 PM, 4:30 PM – 7:30 PM",1
Dr Praveen Kaur,ent,dwarka,28.5923,77.03133,700.0,4.4,+91-964773311,"ENT Clinic / Hospital, Dwarka, Delhi","Mon–Sat | 9:30 AM – 1:30 PM, 4:30 PM – 7:30 PM",1
Dr Rahul Oberoi,ent,dwarka,28.581034,77.030698,1200.0,4.0,+91-901172704,"ENT Clinic / Hospital, Dwarka, Delhi","Mon–Sat | 9:30 AM – 1:30 PM, 4:30 PM – 7:30 PM",1
Dr Divya Choudhary,ent,dwarka,28.60927,77.065584,500.0,4.4,+91-942896560,"ENT Clinic / Hospital, Dwarka, Delhi","Mon–Sat | 9:30 AM – 1:30 PM, 4:30 PM – 7:30 PM",1
Dr Gaurav Jain,ent,dwarka,28.587886,77.033979,900.0,4.6,+91-971581501,"ENT Clinic / Hospital, Dwarka, Delhi","Mon–Sat | 9:30 AM – 1:30 PM, 4:30 PM – 7:30 PM",1
Dr Kavita Bansal,ent,dwarka,28.591475,77.031064,700.0,4.6,+91-977904520,"ENT Clinic / Hospital, Dwarka, Delhi","Mon–Sat | 9:30 AM – 1:30 PM, 4:30 PM – 7:30 PM",1
Dr Ankush Gupta,ent,dwarka,28.579987,77.030176,1200.0,4.6,+91-992937933,"ENT Clinic / Hospital, Dwarka, Delhi","Mon–Sat | 9:30 AM – 1:30 PM, 4:30 PM – 7:30 PM",1
Dr Simran Kaur,ent,dwarka,28.583988,77.029731,700.0,4.5,+91-933996107,"ENT Clinic / Hospital, Dwarka, Delhi","Mon–Sat | 9:30 AM – 1:30 PM, 4:30 PM – 7:30 PM",1
Dr Ritu Anand,ent,dwarka,28.597031,77.063627,700.0,3.9,+91-935737990,"ENT Clinic / Hospital, Dwarka, Delhi","Mon–Sat | 9:30 AM – 1:30 PM, 4:30 PM – 7:30 PM",1
Dr Puneet Arora,ent,dwarka,28.604409,77.047685,900.0,4.6,+91-962438713,"ENT Clinic / Hospital, Dwarka, Delhi","Mon–Sat | 9:30 AM – 1:30 PM, 4:30 PM – 7:30 PM",1
Dr Charu Gill,ent,dwarka,28.583689,77.030915,900.0,4.4,+91-916407123,"ENT Clinic / Hospital, Dwarka, Delhi","Mon–Sat | 9:30 AM – 1:30 PM, 4:30 PM – 7:30 PM",1
Dr Saurabh Mehta,ent,dwarka,28.614092,77.036518,2000.0,4.5,+91-959852782,"ENT Clinic / Hospital, Dwarka, Delhi","Mon–Sat | 9:30 AM – 1:30 PM, 4:30 PM – 7:30 PM",1
Dr Isha Khurana,ent,dwarka,28.58734,77.066839,900.0,4.0,+91-918708842,"ENT Clinic / Hospital, Dwarka, Delhi","Mon–Sat | 9:30 AM – 1:30 PM, 4:30 PM – 7:30 PM",1
Dr Tarun Jain,ent,dwarka,28.604165,77.031067,1200.0,4.2,+91-922936423,"ENT Clinic / Hospital, Dwarka, Delhi","Mon–Sat | 9:30 AM – 1:30 PM, 4:30 PM – 7:30 PM",1
Dr Namita Goyal,ent,dwarka,28.596259,77.052425,1200.0,4.8,+91-956225953,"ENT Clinic / Hospital, Dwarka, Delhi","Mon–Sat | 9:30 AM – 1:30 PM, 4:30 PM – 7:30 PM",1
Dr Bhavya Sood,ent,dwarka,28.581869,77.041799,700.0,4.1,+91-916412761,"ENT Clinic / Hospital, Dwarka, Delhi","Mon–Sat | 9:30 AM – 1:30 PM, 4:30 PM – 7:30 PM",1
Dr Meenal Arora,ent,dwarka,28.577637,77.03054,1200.0,4.8,+91-903155638,"ENT Clinic / Hospital, Dwarka, Delhi","Mon–Sat | 9:30 AM – 1:30 PM, 4:30 PM – 7:30 PM",1
Dr Keshav Gupta,ent,dwarka,28.611618,77.053145,1200.0,3.8,+91-994964100,"ENT Clinic / Hospital, Dwarka, Delhi","Mon–Sat | 9:30 AM – 1:30 PM, 4:30 PM – 7:30 PM",1
Dr Rohini Mehra,ent,dwarka,28.590117,77.0404,700.0,4.1,+91-910837304,"ENT Clinic / Hospital, Dwarka, Delhi","Mon–Sat | 9:30 AM – 1:30 PM, 4:30 PM – 7:30 PM",1
Dr Apoorva Jain,ent,dwarka,28.602966,77.037803,2000.0,4.4,+91-980561022,"ENT Clinic / Hospital, Dwarka, Delhi","Mon–Sat | 9:30 AM – 1:30 PM, 4:30 PM – 7:30 PM",1
Dr Saket Malhotra,ent,dwarka,28.583852,77.027797,500.0,4.1,+91-981271971,"ENT Clinic / Hospital, Dwarka, Delhi","Mon–Sat | 9:30 AM – 1:30 PM, 4:30 PM – 7:30 PM",1
Dr R K Sharma,ent,krishna nagar,28.638976,77.280687,900.0,3.9,+91-993509136,"ENT Clinic / Hospital, Krishna Nagar, Delhi","Mon–Sat | 9:30 AM – 1:30 PM, 4:30 PM – 7:30 PM",1
Dr Amitabh Sinha,ent,krishna nagar,28.657907,77.270362,1200.0,4.8,+91-997828783,"ENT Clinic / Hospital, Krishna Nagar, Delhi","Mon–Sat | 9:30 AM – 1:30 PM, 4:30 PM – 7:30 PM",1
Dr Sangeeta Verma,ent,krishna nagar,28.654376,77.282839,500.0,4.2,+91-940769649,"ENT Clinic / Hospital, Krishna Nagar, Delhi","Mon–Sat | 9:30 AM – 1:30 PM, 4:30 PM – 7:30 PM",1
Dr Neetu Singh,ent,krishna nagar,28.669991,77.270425,700.0,4.4,+91-933874899,"ENT Clinic / Hospital, Krishna Nagar, Delhi","Mon–Sat | 9:30 AM – 1:30 PM, 4:30 PM – 7:30 PM",1
Dr Tarun Kapoor,ent,krishna nagar,28.649375,77.280301,2000.0,4.6,+91-925838615,"ENT Clinic / Hospital, Krishna Nagar, Delhi","Mon–Sat | 9:30 AM – 1:30 PM, 4:30 PM – 7:30 PM",1
Dr Alka Bhatt,ent,krishna nagar,28.640254,77.274731,2000.0,4.8,+91-922439559,"ENT Clinic / Hospital, Krishna Nagar, Delhi","Mon–Sat | 9:30 AM – 1:30 PM, 4:30 PM – 7:30 PM",1
Dr Naveen Arora,ent,krishna nagar,28.636276,77.296053,1200.0,4.8,+91-957247402,"ENT Clinic / Hospital, Krishna Nagar, Delhi","Mon–Sat | 9:30 AM – 1:30 PM, 4:30 PM – 7:30 PM",1
Dr Sunil Mehra,ent,krishna nagar,28.665189,77.284575,900.0,4.5,+91-985534141,"ENT Clinic / Hospital, Krishna Nagar, Delhi","Mon–Sat | 9:30 AM – 1:30 PM, 4:30 PM – 7:30 PM",1
Dr Madhu Bala,ent,krishna nagar,28.645098,77.266781,900.0,3.9,+91-921943710,"ENT Clinic / Hospital, Krishna Nagar, Delhi","Mon–Sat | 9:30 AM – 1:30 PM, 4:30 PM – 7:30 PM",1
Dr Rekha Joshi,ent,krishna nagar,28.655966,77.272554,1200.0,4.9,+91-966143815,"ENT Clinic / Hospital, Krishna Nagar, Delhi","Mon–Sat | 9:30 AM – 1:30 PM, 4:30 PM – 7:30 PM",1
Dr Bhavna Kapoor,ent,krishna nagar,28.638493,77.288026,500.0,4.6,+91-984199679,"ENT Clinic / Hospital, Krishna Nagar, Delhi","Mon–Sat | 9:30 AM – 1:30 PM, 4:30 PM – 7:30 PM",1
Dr Pankaj Sharma,ent,krishna nagar,28.667813,77.268276,1200.0,4.5,+91-952709742,"ENT Clinic / Hospital, Krishna Nagar, Delhi","Mon–Sat | 9:30 AM – 1:30 PM, 4:30 PM – 7:30 PM",1
Dr Anjali Verma,ent,krishna nagar,28.638303,77.282012,1500.0,4.5,+91-992342090,"ENT Clinic / Hospital, Krishna Nagar, Delhi","Mon–Sat | 9:30 AM – 1:30 PM, 4:30 PM – 7:30 PM",1
Dr Sonalika Rao,ent,krishna nagar,28.661075,77.297181,1200.0,4.5,+91-935906534,"ENT Clinic / Hospital, Krishna Nagar, Delhi","Mon–Sat | 9:30 AM – 1:30 PM, 4:30 PM – 7:30 PM",1
Dr Karanpreet Kaur,ent,krishna nagar,28.642182,77.27095,1200.0,4.3,+91-994209113,"ENT Clinic / Hospital, Krishna Nagar, Delhi","Mon–Sat | 9:30 AM – 1:30 PM, 4:30 PM – 7:30 PM",1
Dr Yogesh Kumar,ent,krishna nagar,28.650591,77.272832,1500.0,4.9,+91-960635905,"ENT Clinic / Hospital, Krishna Nagar, Delhi","Mon–Sat | 9:30 AM – 1:30 PM, 4:30 PM – 7:30 PM",1
Dr Hemant Agarwal,ent,krishna nagar,28.645986,77.298107,900.0,4.0,+91-961414719,"ENT Clinic / Hospital, Krishna Nagar, Delhi","Mon–Sat | 9:30 AM – 1:30 PM, 4:30 PM – 7:30 PM",1
Dr Seema Bhatia,ent,krishna nagar,28.643494,77.2787,500.0,4.9,+91-984812346,"ENT Clinic / Hospital, Krishna Nagar, Delhi","Mon–Sat | 9:30 AM – 1:30 PM, 4:30 PM – 7:30 PM",1
Dr Anu Malhotra,ent,krishna nagar,28.656421,77.266583,500.0,4.6,+91-996744322,"ENT Clinic / Hospital, Krishna Nagar, Delhi","Mon–Sat | 9:30 AM – 1:30 PM, 4:30 PM – 7:30 PM",1
Dr Rachna Gupta,ent,krishna nagar,28.669669,77.286166,1500.0,4.9,+91-995251768,"ENT Clinic / Hospital, Krishna Nagar, Delhi","Mon–Sat | 9:30 AM – 1:30 PM, 4:30 PM – 7:30 PM",1
Dr Vijay Lal,ent,krishna nagar,28.666105,77.27804,2000.0,4.4,+91-945009939,"ENT Clinic / Hospital, Krishna Nagar, Delhi","Mon–Sat | 9:30 AM – 1:30 PM, 4:30 PM – 7:30 PM",1
Dr Pooja Nair,ent,krishna nagar,28.645614,77.270552,500.0,3.8,+91-991415297,"ENT Clinic / Hospital, Krishna Nagar, Delhi","Mon–Sat | 9:30 AM – 1:30 PM, 4:30 PM – 7:30 PM",1
Dr Girish Sharma,ent,krishna nagar,28.659654,77.266821,500.0,4.0,+91-935874407,"ENT Clinic / Hospital, Krishna Nagar, Delhi","Mon–Sat | 9:30 AM – 1:30 PM, 4:30 PM – 7:30 PM",1
Dr Ritu Bansal,ent,krishna nagar,28.633851,77.282471,700.0,3.8,+91-924118948,"ENT Clinic / Hospital, Krishna Nagar, Delhi","Mon–Sat | 9:30 AM – 1:30 PM, 4:30 PM – 7:30 PM",1
Dr Vandana Jain,ent,krishna nagar,28.660329,77.284243,900.0,4.1,+91-917257256,"ENT Clinic / Hospital, Krishna Nagar, Delhi","Mon–Sat | 9:30 AM – 1:30 PM, 4:30 PM – 7:30 PM",1
Dr Nisha Goyal,ent,krishna nagar,28.666504,77.287999,1200.0,4.2,+91-903413067,"ENT Clinic / Hospital, Krishna Nagar, Delhi","Mon–Sat | 9:30 AM – 1:30 PM, 4:30 PM – 7:30 PM",1
Dr Rahul Saxena,ent,krishna nagar,28.647384,77.294643,1500.0,4.7,+91-994762524,"ENT Clinic / Hospital, Krishna Nagar, Delhi","Mon–Sat | 9:30 AM – 1:30 PM, 4:30 PM – 7:30 PM",1
Dr Isha Khanna,ent,krishna nagar,28.668895,77.285716,500.0,4.6,+91-990902106,"ENT Clinic / Hospital, Krishna Nagar, Delhi","Mon–Sat | 9:30 AM – 1:30 PM, 4:30 PM – 7:30 PM",1
Dr Meera Iyer,ent,krishna nagar,28.631934,77.287682,1500.0,4.5,+91-969635307,"ENT Clinic / Hospital, Krishna Nagar, Delhi","Mon–Sat | 9:30 AM – 1:30 PM, 4:30 PM – 7:30 PM",1
Dr Sudeep Chandra,ent,krishna nagar,28.643968,77.269823,1500.0,4.8,+91-975732814,"ENT Clinic / Hospital, Krishna Nagar, Delhi","Mon–Sat | 9:30 AM – 1:30 PM, 4:30 PM – 7:30 PM",1
Dr Amit Goyal,ent,krishna nagar,28.643867,77.298351,1500.0,4.8,+91-945833793,"ENT Clinic / Hospital, Krishna Nagar, Delhi","Mon–Sat | 9:30 AM – 1:30 PM, 4:30 PM – 7:30 PM",1
Dr Nitin Arora,ent,krishna nagar,28.658825,77.303295,900.0,4.0,+91-923345654,"ENT Clinic / Hospital, Krishna Nagar, Delhi","Mon–Sat | 9:30 AM – 1:30 PM, 4:30 PM – 7:30 PM",1
Dr Charu Jain,ent,krishna nagar,28.657133,77.270325,900.0,4.5,+91-987846708,"ENT Clinic / Hospital, Krishna Nagar, Delhi","Mon–Sat | 9:30 AM – 1:30 PM, 4:30 PM – 7:30 PM",1
Dr Manoj Khanna,ent,krishna nagar,28.652492,77.295723,1500.0,4.8,+91-960249917,"ENT Clinic / Hospital, Krishna Nagar, Delhi","Mon–Sat | 9:30 AM – 1:30 PM, 4:30 PM – 7:30 PM",1
Dr Payal Bansal,ent,krishna nagar,28.656962,77.268219,2000.0,4.9,+91-959933582,"ENT Clinic / Hospital, Krishna Nagar, Delhi","Mon–Sat | 9:30 AM – 1:30 PM, 4:30 PM – 7:30 PM",1
Dr Shalini Mehta,ent,krishna nagar,28.636714,77.28114,900.0,4.8,+91-966234051,"ENT Clinic / Hospital, Krishna Nagar, Delhi","Mon–Sat | 9:30 AM – 1:30 PM, 4:30 PM – 7:30 PM",1
Dr Vikas Bhatia,ent,krishna nagar,28.6572,77.292469,900.0,4.5,+91-941062297,"ENT Clinic / Hospital, Krishna Nagar, Delhi","Mon–Sat | 9:30 AM – 1:30 PM, 4:30 PM – 7:30 PM",1
Dr Aarti Sood,ent,krishna nagar,28.644122,77.265626,1200.0,3.9,+91-916784488,"ENT Clinic / Hospital, Krishna Nagar, Delhi","Mon–Sat | 9:30 AM – 1:30 PM, 4:30 PM – 7:30 PM",1
Dr Rohit Sehgal,ent,krishna nagar,28.650372,77.292577,1500.0,3.8,+91-978241172,"ENT Clinic / Hospital, Krishna Nagar, Delhi","Mon–Sat | 9:30 AM – 1:30 PM, 4:30 PM – 7:30 PM",1
Dr Monika Gupta,ent,krishna nagar,28.634791,77.28282,900.0,4.3,+91-918845350,"ENT Clinic / Hospital, Krishna Nagar, Delhi","Mon–Sat | 9:30 AM – 1:30 PM, 4:30 PM – 7:30 PM",1
Dr Karan Kapoor,ent,rohini,28.734957,77.122488,700.0,4.2,+91-906863004,"ENT Clinic / Hospital, Rohini, Delhi","Mon–Sat | 9:30 AM – 1:30 PM, 4:30 PM – 7:30 PM",1
Dr Lata Sharma,ent,rohini,28.738085,77.125043,1200.0,4.2,+91-961211900,"ENT Clinic / Hospital, Rohini, Delhi","Mon–Sat | 9:30 AM – 1:30 PM, 4:30 PM – 7:30 PM",1
Dr Sheetal Gupta,ent,rohini,28.711558,77.098712,500.0,4.1,+91-967874796,"ENT Clinic / Hospital, Rohini, Delhi","Mon–Sat | 9:30 AM – 1:30 PM, 4:30 PM – 7:30 PM",1
Dr Arun Jain,ent,rohini,28.710737,77.108716,2000.0,4.5,+91-916351769,"ENT Clinic / Hospital, Rohini, Delhi","Mon–Sat | 9:30 AM – 1:30 PM, 4:30 PM – 7:30 PM",1
Dr Meera Sood,ent,rohini,28.716688,77.125475,900.0,4.2,+91-971057078,"ENT Clinic / Hospital, Rohini, Delhi","Mon–Sat | 9:30 AM – 1:30 PM, 4:30 PM – 7:30 PM",1
Dr Vivek Rathi,ent,rohini,28.735808,77.114645,1200.0,4.0,+91-908317787,"ENT Clinic / Hospital, Rohini, Delhi","Mon–Sat | 9:30 AM – 1:30 PM, 4:30 PM – 7:30 PM",1
Dr Divya Mehra,ent,rohini,28.72637,77.108368,2000.0,4.3,+91-905512540,"ENT Clinic / Hospital, Rohini, Delhi","Mon–Sat | 9:30 AM – 1:30 PM, 4:30 PM – 7:30 PM",1
Dr Raman Kapoor,ent,rohini,28.738694,77.129628,500.0,3.9,+91-980494191,"ENT Clinic / Hospital, Rohini, Delhi","Mon–Sat | 9:30 AM – 1:30 PM, 4:30 PM – 7:30 PM",1
Dr Bharti Singh,ent,rohini,28.723881,77.106539,900.0,4.1,+91-924731687,"ENT Clinic / Hospital, Rohini, Delhi","Mon–Sat | 9:30 AM – 1:30 PM, 4:30 PM – 7:30 PM",1
Dr Kajal Sharma,ent,rohini,28.715648,77.090285,1200.0,4.2,+91-962052398,"ENT Clinic / Hospital, Rohini, Delhi","Mon–Sat | 9:30 AM – 1:30 PM, 4:30 PM – 7:30 PM",1
Dr Nikhil Arora,ent,rohini,28.703605,77.12316,700.0,4.7,+91-970478426,"ENT Clinic / Hospital, Rohini, Delhi","Mon–Sat | 9:30 AM – 1:30 PM, 4:30 PM – 7:30 PM",1
Dr Pallavi Batra,ent,rohini,28.74159,77.10856,1200.0,4.8,+91-903315456,"ENT Clinic / Hospital, Rohini, Delhi","Mon–Sat | 9:30 AM – 1:30 PM, 4:30 PM – 7:30 PM",1
Dr Sejal Nanda,ent,rohini,28.729121,77.10592,700.0,3.9,+91-936461682,"ENT Clinic / Hospital, Rohini, Delhi","Mon–Sat | 9:30 AM – 1:30 PM, 4:30 PM – 7:30 PM",1
Dr Gaurav Verma,ent,rohini,28.737154,77.103276,700.0,4.7,+91-992754964,"ENT Clinic / Hospital, Rohini, Delhi","Mon–Sat | 9:30 AM – 1:30 PM, 4:30 PM – 7:30 PM",1
Dr Anju Mishra,ent,rohini,28.737255,77.128351,900.0,4.2,+91-953431641,"ENT Clinic / Hospital, Rohini, Delhi","Mon–Sat | 9:30 AM – 1:30 PM, 4:30 PM – 7:30 PM",1
Dr Rupali Kaur,ent,rohini,28.740038,77.100798,1500.0,4.0,+91-994415928,"ENT Clinic / Hospital, Rohini, Delhi","Mon–Sat | 9:30 AM – 1:30 PM, 4:30 PM – 7:30 PM",1
Dr Naveen Dutt,ent,rohini,28.719967,77.091764,500.0,4.0,+91-969978538,"ENT Clinic / Hospital, Rohini, Delhi","Mon–Sat | 9:30 AM – 1:30 PM, 4:30 PM – 7:30 PM",1
Dr Pooja Sharma,ent,rohini,28.721187,77.111008,700.0,4.4,+91-967853344,"ENT Clinic / Hospital, Rohini, Delhi","Mon–Sat | 9:30 AM – 1:30 PM, 4:30 PM – 7:30 PM",1
Dr Deepika Verma,ent,rohini,28.709516,77.120578,500.0,4.6,+91-945173785,"ENT Clinic / Hospital, Rohini, Delhi","Mon–Sat | 9:30 AM – 1:30 PM, 4:30 PM – 7:30 PM",1
Dr Kanchan Bansal,ent,rohini,28.737775,77.112882,2000.0,4.4,+91-924606235,"ENT Clinic / Hospital, Rohini, Delhi","Mon–Sat | 9:30 AM – 1:30 PM, 4:30 PM – 7:30 PM",1
Dr Nupur Arora,ent,rohini,28.731176,77.112138,900.0,4.3,+91-991478632,"ENT Clinic / Hospital, Rohini, Delhi","Mon–Sat | 9:30 AM – 1:30 PM, 4:30 PM – 7:30 PM",1
Dr Shweta Dixit,ent,rohini,28.715239,77.121162,700.0,4.6,+91-977417868,"ENT Clinic / Hospital, Rohini, Delhi","Mon–Sat | 9:30 AM – 1:30 PM, 4:30 PM – 7:30 PM",1
Dr Prashant Yadav,ent,rohini,28.707377,77.117325,700.0,4.9,+91-908131844,"ENT Clinic / Hospital, Rohini, Delhi","Mon–Sat | 9:30 AM – 1:30 PM, 4:30 PM – 7:30 PM",1
Dr Varun Malik,ent,rohini,28.727702,77.104247,500.0,4.4,+91-988518233,"ENT Clinic / Hospital, Rohini, Delhi","Mon–Sat | 9:30 AM – 1:30 PM, 4:30 PM – 7:30 PM",1
Dr Ananya Paul,ent,rohini,28.706517,77.109834,700.0,4.8,+91-949101723,"ENT Clinic / Hospital, Rohini, Delhi","Mon–Sat | 9:30 AM – 1:30 PM, 4:30 PM – 7:30 PM",1
Dr Ritu Chawla,ent,rohini,28.731847,77.128436,1500.0,4.7,+91-981344016,"ENT Clinic / Hospital, Rohini, Delhi","Mon–Sat | 9:30 AM – 1:30 PM, 4:30 PM – 7:30 PM",1
Dr Sakshi Verma,ent,rohini,28.738409,77.129181,1200.0,4.5,+91-932063418,"ENT Clinic / Hospital, Rohini, Delhi","Mon–Sat | 9:30 AM – 1:30 PM, 4:30 PM – 7:30 PM",1
Dr Tanya Sharma,ent,rohini,28.712945,77.120623,1500.0,4.8,+91-927383263,"ENT Clinic / Hospital, Rohini, Delhi","Mon–Sat | 9:30 AM – 1:30 PM, 4:30 PM – 7:30 PM",1
Dr Harpreet Kaur,ent,rohini,28.738708,77.125221,1500.0,4.1,+91-903907428,"ENT Clinic / Hospital, Rohini, Delhi","Mon–Sat | 9:30 AM – 1:30 PM, 4:30 PM – 7:30 PM",1
Dr Rohit Khanna,ent,rohini,28.732233,77.114872,1200.0,4.5,+91-937967134,"ENT Clinic / Hospital, Rohini, Delhi","Mon–Sat | 9:30 AM – 1:30 PM, 4:30 PM – 7:30 PM",1
Dr Sonal Arora,ent,rohini,28.705418,77.124543,1200.0,4.2,+91-968766132,"ENT Clinic / Hospital, Rohini, Delhi","Mon–Sat | 9:30 AM – 1:30 PM, 4:30 PM – 7:30 PM",1
Dr Amit Sethi,ent,rohini,28.71643,77.124796,500.0,4.9,+91-960731969,"ENT Clinic / Hospital, Rohini, Delhi","Mon–Sat | 9:30 AM – 1:30 PM, 4:30 PM – 7:30 PM",1
Dr Nivedita Jain,ent,rohini,28.703028,77.117831,900.0,3.9,+91-937692228,"ENT Clinic / Hospital, Rohini, Delhi","Mon–Sat | 9:30 AM – 1:30 PM, 4:30 PM – 7:30 PM",1
Dr Puneet Bansal,ent,rohini,28.714461,77.12202,2000.0,4.2,+91-989504956,"ENT Clinic / Hospital, Rohini, Delhi","Mon–Sat | 9:30 AM – 1:30 PM, 4:30 PM – 7:30 PM",1
Dr Ishaan Malhotra,ent,rohini,28.734593,77.120449,500.0,4.8,+91-908599487,"ENT Clinic / Hospital, Rohini, Delhi","Mon–Sat | 9:30 AM – 1:30 PM, 4:30 PM – 7:30 PM",1
Dr Aakriti Goyal,ent,rohini,28.729961,77.099263,900.0,4.2,+91-921114740,"ENT Clinic / Hospital, Rohini, Delhi","Mon–Sat | 9:30 AM – 1:30 PM, 4:30 PM – 7:30 PM",1
Dr Rajat Mehra,ent,rohini,28.712928,77.123025,900.0,4.4,+91-997775292,"ENT Clinic / Hospital, Rohini, Delhi","Mon–Sat | 9:30 AM – 1:30 PM, 4:30 PM – 7:30 PM",1
Dr Sunaina Kapoor,ent,rohini,28.7243,77.112664,1200.0,4.5,+91-906053115,"ENT Clinic / Hospital, Rohini, Delhi","Mon–Sat | 9:30 AM – 1:30 PM, 4:30 PM – 7:30 PM",1
Dr Kunal Aggarwal,ent,rohini,28.712687,77.093502,1500.0,4.9,+91-982272613,"ENT Clinic / Hospital, Rohini, Delhi","Mon–Sat | 9:30 AM – 1:30 PM, 4:30 PM – 7:30 PM",1
Dr Anil Verma,ent,shahdara,28.696588,77.291396,700.0,3.8,+91-932878096,"ENT Clinic / Hospital, Shahdara, Delhi","Mon–Sat | 9:30 AM – 1:30 PM, 4:30 PM – 7:30 PM",1
Dr Sonalika Sharma,ent,shahdara,28.693608,77.277601,700.0,4.2,+91-979242868,"ENT Clinic / Hospital, Shahdara, Delhi","Mon–Sat | 9:30 AM – 1:30 PM, 4:30 PM – 7:30 PM",1
Dr Pratibha Gupta,ent,shahdara,28.696387,77.290083,2000.0,4.7,+91-914274285,"ENT Clinic / Hospital, Shahdara, Delhi","Mon–Sat | 9:30 AM – 1:30 PM, 4:30 PM – 7:30 PM",1
Dr Mukesh Arora,ent,shahdara,28.686477,77.288041,1200.0,4.6,+91-940013754,"ENT Clinic / Hospital, Shahdara, Delhi","Mon–Sat | 9:30 AM – 1:30 PM, 4:30 PM – 7:30 PM",1
Dr Suman Lata,ent,shahdara,28.688092,77.273541,1500.0,4.3,+91-929433296,"ENT Clinic / Hospital, Shahdara, Delhi","Mon–Sat | 9:30 AM – 1:30 PM, 4:30 PM – 7:30 PM",1
Dr Priyanka Rana,ent,shahdara,28.668615,77.306899,900.0,4.3,+91-950733717,"ENT Clinic / Hospital, Shahdara, Delhi","Mon–Sat | 9:30 AM – 1:30 PM, 4:30 PM – 7:30 PM",1
Dr Reena Bhatia,ent,shahdara,28.664051,77.274336,2000.0,4.5,+91-974763457,"ENT Clinic / Hospital, Shahdara, Delhi","Mon–Sat | 9:30 AM – 1:30 PM, 4:30 PM – 7:30 PM",1
Dr Gita Chopra,ent,shahdara,28.683687,77.278597,500.0,4.3,+91-973535923,"ENT Clinic / Hospital, Shahdara, Delhi","Mon–Sat | 9:30 AM – 1:30 PM, 4:30 PM – 7:30 PM",1
Dr Ankush Mehra,ent,shahdara,28.687837,77.306538,1200.0,4.1,+91-973546910,"ENT Clinic / Hospital, Shahdara, Delhi","Mon–Sat | 9:30 AM – 1:30 PM, 4:30 PM – 7:30 PM",1
Dr Megha Sharma,ent,shahdara,28.668744,77.278523,500.0,4.6,+91-938793355,"ENT Clinic / Hospital, Shahdara, Delhi","Mon–Sat | 9:30 AM – 1:30 PM, 4:30 PM – 7:30 PM",1
Dr Ritika Jain,ent,shahdara,28.691185,77.301743,1200.0,4.0,+91-904132109,"ENT Clinic / Hospital, Shahdara, Delhi","Mon–Sat | 9:30 AM – 1:30 PM, 4:30 PM – 7:30 PM",1
Dr Yogita Kapoor,ent,shahdara,28.672775,77.275632,500.0,3.9,+91-978503227,"ENT Clinic / Hospital, Shahdara, Delhi","Mon–Sat | 9:30 AM – 1:30 PM, 4:30 PM – 7:30 PM",1
Dr Rakesh Saini,ent,shahdara,28.682843,77.283957,700.0,4.0,+91-994396550,"ENT Clinic / Hospital, Shahdara, Delhi","Mon–Sat | 9:30 AM – 1:30 PM, 4:30 PM – 7:30 PM",1
Dr Shivani Gupta,ent,shahdara,28.686903,77.273995,1500.0,4.2,+91-981223813,"ENT Clinic / Hospital, Shahdara, Delhi","Mon–Sat | 9:30 AM – 1:30 PM, 4:30 PM – 7:30 PM",1
Dr Asha Rani,ent,shahdara,28.678669,77.304091,700.0,4.2,+91-960072508,"ENT Clinic / Hospital, Shahdara, Delhi","Mon–Sat | 9:30 AM – 1:30 PM, 4:30 PM – 7:30 PM",1
Dr Nidhi Malhotra,ent,shahdara,28.69383,77.284076,500.0,4.1,+91-923153185,"ENT Clinic / Hospital, Shahdara, Delhi","Mon–Sat | 9:30 AM – 1:30 PM, 4:30 PM – 7:30 PM",1
Dr Kamalpreet Kaur,ent,shahdara,28.67084,77.273693,1200.0,4.0,+91-960247347,"ENT Clinic / Hospital, Shahdara, Delhi","Mon–Sat | 9:30 AM – 1:30 PM, 4:30 PM – 7:30 PM",1
Dr Harpreet Kaur,ent,shahdara,28.696224,77.300416,700.0,3.9,+91-900057805,"ENT Clinic / Hospital, Shahdara, Delhi","Mon–Sat | 9:30 AM – 1:30 PM, 4:30 PM – 7:30 PM",1
Dr Neelam Kaur,ent,shahdara,28.687146,77.305793,1200.0,4.5,+91-968102025,"ENT Clinic / Hospital, Shahdara, Delhi","Mon–Sat | 9:30 AM – 1:30 PM, 4:30 PM – 7:30 PM",1
Dr Sunil Aggarwal,ent,shahdara,28.697728,77.273745,1200.0,4.0,+91-954984128,"ENT Clinic / Hospital, Shahdara, Delhi","Mon–Sat | 9:30 AM – 1:30 PM, 4:30 PM – 7:30 PM",1
Dr Amit Roy,ent,shahdara,28.671693,77.281503,700.0,3.9,+91-960593631,"ENT Clinic / Hospital, Shahdara, Delhi","Mon–Sat | 9:30 AM – 1:30 PM, 4:30 PM – 7:30 PM",1
Dr Charu Mehra,ent,shahdara,28.674907,77.288415,500.0,4.0,+91-928262288,"ENT Clinic / Hospital, Shahdara, Delhi","Mon–Sat | 9:30 AM – 1:30 PM, 4:30 PM – 7:30 PM",1
Dr Sangeeta Rathi,ent,shahdara,28.673625,77.27124,500.0,4.2,+91-945074422,"ENT Clinic / Hospital, Shahdara, Delhi","Mon–Sat | 9:30 AM – 1:30 PM, 4:30 PM – 7:30 PM",1
Dr Rekha Saxena,ent,shahdara,28.693094,77.30848,700.0,4.2,+91-976434005,"ENT Clinic / Hospital, Shahdara, Delhi","Mon–Sat | 9:30 AM – 1:30 PM, 4:30 PM – 7:30 PM",1
Dr Asha Verma,ent,shahdara,28.684628,77.280704,700.0,3.8,+91-908458818,"ENT Clinic / Hospital, Shahdara, Delhi","Mon–Sat | 9:30 AM – 1:30 PM, 4:30 PM – 7:30 PM",1
Dr Ritu Raj,ent,shahdara,28.676709,77.297183,2000.0,4.6,+91-978215099,"ENT Clinic / Hospital, Shahdara, Delhi","Mon–Sat | 9:30 AM – 1:30 PM, 4:30 PM – 7:30 PM",1
Dr Shobha Paul,ent,shahdara,28.683583,77.29523,1500.0,4.7,+91-960571504,"ENT Clinic / Hospital, Shahdara, Delhi","Mon–Sat | 9:30 AM – 1:30 PM, 4:30 PM – 7:30 PM",1
Dr Pankaj Goel,ent,shahdara,28.703761,77.289378,900.0,4.3,+91-998032332,"ENT Clinic / Hospital, Shahdara, Delhi","Mon–Sat | 9:30 AM – 1:30 PM, 4:30 PM – 7:30 PM",1
Dr Rohit Anand,ent,shahdara,28.690244,77.297427,2000.0,4.3,+91-995159360,"ENT Clinic / Hospital, Shahdara, Delhi","Mon–Sat | 9:30 AM – 1:30 PM, 4:30 PM – 7:30 PM",1
Dr Manish Kapoor,ent,shahdara,28.679792,77.273174,1500.0,4.1,+91-999806820,"ENT Clinic / Hospital, Shahdara, Delhi","Mon–Sat | 9:30 AM – 1:30 PM, 4:30 PM – 7:30 PM",1
Dr Nitin Khanna,ent,shahdara,28.66892,77.303317,900.0,3.9,+91-947279126,"ENT Clinic / Hospital, Shahdara, Delhi","Mon–Sat | 9:30 AM – 1:30 PM, 4:30 PM – 7:30 PM",1
Dr Deepak Arora,ent,shahdara,28.700368,77.288543,1200.0,4.5,+91-910578948,"ENT Clinic / Hospital, Shahdara, Delhi","Mon–Sat | 9:30 AM – 1:30 PM, 4:30 PM – 7:30 PM",1
Dr Payal Verma,ent,shahdara,28.680321,77.287804,1500.0,4.2,+91-916266088,"ENT Clinic / Hospital, Shahdara, Delhi","Mon–Sat | 9:30 AM – 1:30 PM, 4:30 PM – 7:30 PM",1
Dr Alok Mishra,ent,shahdara,28.685029,77.276276,2000.0,3.9,+91-933038818,"ENT Clinic / Hospital, Shahdara, Delhi","Mon–Sat | 9:30 AM – 1:30 PM, 4:30 PM – 7:30 PM",1
Dr Bhupesh Goyal,ent,shahdara,28.694509,77.280388,900.0,4.6,+91-994577461,"ENT Clinic / Hospital, Shahdara, Delhi","Mon–Sat | 9:30 AM – 1:30 PM, 4:30 PM – 7:30 PM",1
Dr Neha Jain,ent,shahdara,28.687858,77.282581,900.0,4.2,+91-983111246,"ENT Clinic / Hospital, Shahdara, Delhi","Mon–Sat | 9:30 AM – 1:30 PM, 4:30 PM – 7:30 PM",1
Dr Tushar Malhotra,ent,shahdara,28.676928,77.284752,500.0,4.4,+91-900186556,"ENT Clinic / Hospital, Shahdara, Delhi","Mon–Sat | 9:30 AM – 1:30 PM, 4:30 PM – 7:30 PM",1
Dr Gaurav Sood,ent,shahdara,28.670362,77.295632,1200.0,4.2,+91-930824103,"ENT Clinic / Hospital, Shahdara, Delhi","Mon–Sat | 9:30 AM – 1:30 PM, 4:30 PM – 7:30 PM",1
Dr Meenakshi Arora,ent,shahdara,28.667133,77.302101,500.0,4.5,+91-928446985,"ENT Clinic / Hospital, Shahdara, Delhi","Mon–Sat | 9:30 AM – 1:30 PM, 4:30 PM – 7:30 PM",1
Dr Vikram Sethi,ent,shahdara,28.696167,77.273622,500.0,4.1,+91-927124363,"ENT Clinic / Hospital, Shahdara, Delhi","Mon–Sat | 9:30 AM – 1:30 PM, 4:30 PM – 7:30 PM",1
Dr Amit Gupta,general medicine,dwarka,28.591685,77.05919,500.0,4.1,+91-962045811,"General Physician Clinic / Hospital, Dwarka, Delhi","Mon–Sat | 9:30 AM – 1:30 PM, 4:30 PM – 7:30 PM",1
Dr Neha Sharma,general medicine,dwarka,28.583532,77.06754,400.0,4.3,+91-959516674,"General Physician Clinic / Hospital, Dwarka, Delhi","Mon–Sat | 9:30 AM – 1:30 PM, 4:30 PM – 7:30 PM",1
Dr Rohit Mehra,general medicine,dwarka,28.605612,77.067654,600.0,4.0,+91-949743172,"General Physician Clinic / Hospital, Dwarka, Delhi","Mon–Sat | 9:30 AM – 1:30 PM, 4:30 PM – 7:30 PM",1
Dr Poonam Jain,general medicine,dwarka,28.598372,77.060412,600.0,4.3,+91-904001543,"General Physician Clinic / Hospital, Dwarka, Delhi","Mon–Sat | 9:30 AM – 1:30 PM, 4:30 PM – 7:30 PM",1
Dr Suresh Kumar,general medicine,dwarka,28.584707,77.056282,400.0,4.2,+91-992571293,"General Physician Clinic / Hospital, Dwarka, Delhi","Mon–Sat | 9:30 AM – 1:30 PM, 4:30 PM – 7:30 PM",1
Dr Anjali Verma,general medicine,dwarka,28.594246,77.063766,700.0,4.6,+91-923211341,"General Physician Clinic / Hospital, Dwarka, Delhi","Mon–Sat | 9:30 AM – 1:30 PM, 4:30 PM – 7:30 PM",1
Dr Rakesh Bansal,general medicine,dwarka,28.577524,77.053358,400.0,4.2,+91-957149447,"General Physician Clinic / Hospital, Dwarka, Delhi","Mon–Sat | 9:30 AM – 1:30 PM, 4:30 PM – 7:30 PM",1
Dr Deepak Khanna,general medicine,dwarka,28.609758,77.039875,500.0,4.6,+91-964312741,"General Physician Clinic / Hospital, Dwarka, Delhi","Mon–Sat | 9:30 AM – 1:30 PM, 4:30 PM – 7:30 PM",1
Dr Nidhi Aggarwal,general medicine,dwarka,28.577833,77.030304,1000.0,4.6,+91-972855579,"General Physician Clinic / Hospital, Dwarka, Delhi","Mon–Sat | 9:30 AM – 1:30 PM, 4:30 PM – 7:30 PM",1
Dr Karan Malhotra,general medicine,dwarka,28.592411,77.038346,1000.0,4.8,+91-905538836,"General Physician Clinic / Hospital, Dwarka, Delhi","Mon–Sat | 9:30 AM – 1:30 PM, 4:30 PM – 7:30 PM",1
Dr Sunita Arora,general medicine,dwarka,28.606561,77.066373,400.0,4.7,+91-900442756,"General Physician Clinic / Hospital, Dwarka, Delhi","Mon–Sat | 9:30 AM – 1:30 PM, 4:30 PM – 7:30 PM",1
Dr Manoj Tiwari,general medicine,dwarka,28.586299,77.045518,600.0,4.1,+91-948669300,"General Physician Clinic / Hospital, Dwarka, Delhi","Mon–Sat | 9:30 AM – 1:30 PM, 4:30 PM – 7:30 PM",1
Dr Ritu Saxena,general medicine,dwarka,28.607023,77.03629,600.0,4.0,+91-910887107,"General Physician Clinic / Hospital, Dwarka, Delhi","Mon–Sat | 9:30 AM – 1:30 PM, 4:30 PM – 7:30 PM",1
Dr Praveen Goel,general medicine,dwarka,28.58759,77.040116,600.0,3.9,+91-910294346,"General Physician Clinic / Hospital, Dwarka, Delhi","Mon–Sat | 9:30 AM – 1:30 PM, 4:30 PM – 7:30 PM",1
Dr Kavita Kapoor,general medicine,dwarka,28.587993,77.064389,400.0,4.4,+91-967048275,"General Physician Clinic / Hospital, Dwarka, Delhi","Mon–Sat | 9:30 AM – 1:30 PM, 4:30 PM – 7:30 PM",1
Dr Harish Goyal,general medicine,dwarka,28.575218,77.028823,500.0,4.5,+91-926753568,"General Physician Clinic / Hospital, Dwarka, Delhi","Mon–Sat | 9:30 AM – 1:30 PM, 4:30 PM – 7:30 PM",1
Dr Sonal Jain,general medicine,dwarka,28.592526,77.04508,600.0,4.0,+91-918403172,"General Physician Clinic / Hospital, Dwarka, Delhi","Mon–Sat | 9:30 AM – 1:30 PM, 4:30 PM – 7:30 PM",1
Dr Aakash Verma,general medicine,dwarka,28.605024,77.048143,800.0,4.2,+91-970941164,"General Physician Clinic / Hospital, Dwarka, Delhi","Mon–Sat | 9:30 AM – 1:30 PM, 4:30 PM – 7:30 PM",1
Dr Naveen Sood,general medicine,dwarka,28.606589,77.033574,700.0,4.5,+91-904206747,"General Physician Clinic / Hospital, Dwarka, Delhi","Mon–Sat | 9:30 AM – 1:30 PM, 4:30 PM – 7:30 PM",1
Dr Meenal Arora,general medicine,dwarka,28.600318,77.05797,1000.0,4.8,+91-969647839,"General Physician Clinic / Hospital, Dwarka, Delhi","Mon–Sat | 9:30 AM – 1:30 PM, 4:30 PM – 7:30 PM",1
Dr Vikas Bhatia,general medicine,dwarka,28.577537,77.046313,800.0,4.7,+91-981533770,"General Physician Clinic / Hospital, Dwarka, Delhi","Mon–Sat | 9:30 AM – 1:30 PM, 4:30 PM – 7:30 PM",1
Dr Rashmi Gupta,general medicine,dwarka,28.601243,77.029317,700.0,4.2,+91-986443048,"General Physician Clinic / Hospital, Dwarka, Delhi","Mon–Sat | 9:30 AM – 1:30 PM, 4:30 PM – 7:30 PM",1
Dr Tarun Chawla,general medicine,dwarka,28.576877,77.066236,1000.0,4.6,+91-933108619,"General Physician Clinic / Hospital, Dwarka, Delhi","Mon–Sat | 9:30 AM – 1:30 PM, 4:30 PM – 7:30 PM",1
Dr Anita Malhotra,general medicine,dwarka,28.574814,77.041651,800.0,4.2,+91-975144403,"General Physician Clinic / Hospital, Dwarka, Delhi","Mon–Sat | 9:30 AM – 1:30 PM, 4:30 PM – 7:30 PM",1
Dr Puneet Arora,general medicine,dwarka,28.574759,77.049693,600.0,4.3,+91-968686456,"General Physician Clinic / Hospital, Dwarka, Delhi","Mon–Sat | 9:30 AM – 1:30 PM, 4:30 PM – 7:30 PM",1
Dr Bhavya Khurana,general medicine,dwarka,28.60679,77.05325,600.0,4.3,+91-936132009,"General Physician Clinic / Hospital, Dwarka, Delhi","Mon–Sat | 9:30 AM – 1:30 PM, 4:30 PM – 7:30 PM",1
Dr Alok Mishra,general medicine,dwarka,28.609311,77.029149,1000.0,4.2,+91-956849423,"General Physician Clinic / Hospital, Dwarka, Delhi","Mon–Sat | 9:30 AM – 1:30 PM, 4:30 PM – 7:30 PM",1
Dr Divya Jain,general medicine,dwarka,28.612018,77.037979,500.0,4.0,+91-938881269,"General Physician Clinic / Hospital, Dwarka, Delhi","Mon–Sat | 9:30 AM – 1:30 PM, 4:30 PM – 7:30 PM",1
Dr Sachin Mehta,general medicine,dwarka,28.575483,77.063257,1000.0,4.5,+91-949561695,"General Physician Clinic / Hospital, Dwarka, Delhi","Mon–Sat | 9:30 AM – 1:30 PM, 4:30 PM – 7:30 PM",1
Dr Ishita Gupta,general medicine,dwarka,28.575774,77.06615,500.0,4.6,+91-950274949,"General Physician Clinic / Hospital, Dwarka, Delhi","Mon–Sat | 9:30 AM – 1:30 PM, 4:30 PM – 7:30 PM",1
Dr Yogesh Sharma,general medicine,dwarka,28.614358,77.060199,600.0,4.7,+91-910475255,"General Physician Clinic / Hospital, Dwarka, Delhi","Mon–Sat | 9:30 AM – 1:30 PM, 4:30 PM – 7:30 PM",1
Dr Renu Bansal,general medicine,dwarka,28.612015,77.065818,1000.0,4.9,+91-908438916,"General Physician Clinic / Hospital, Dwarka, Delhi","Mon–Sat | 9:30 AM – 1:30 PM, 4:30 PM – 7:30 PM",1
Dr Ankur Sethi,general medicine,dwarka,28.576478,77.058073,800.0,4.2,+91-997707860,"General Physician Clinic / Hospital, Dwarka, Delhi","Mon–Sat | 9:30 AM – 1:30 PM, 4:30 PM – 7:30 PM",1
Dr Shalini Mehra,general medicine,dwarka,28.594964,77.039195,800.0,4.6,+91-918776513,"General Physician Clinic / Hospital, Dwarka, Delhi","Mon–Sat | 9:30 AM – 1:30 PM, 4:30 PM – 7:30 PM",1
Dr Saurabh Jain,general medicine,dwarka,28.605649,77.03394,600.0,4.4,+91-944219925,"General Physician Clinic / Hospital, Dwarka, Delhi","Mon–Sat | 9:30 AM – 1:30 PM, 4:30 PM – 7:30 PM",1
Dr Monika Tandon,general medicine,dwarka,28.59506,77.035853,400.0,4.2,+91-958253641,"General Physician Clinic / Hospital, Dwarka, Delhi","Mon–Sat | 9:30 AM – 1:30 PM, 4:30 PM – 7:30 PM",1
Dr Amit Sood,general medicine,dwarka,28.603118,77.029943,500.0,4.1,+91-931711355,"General Physician Clinic / Hospital, Dwarka, Delhi","Mon–Sat | 9:30 AM – 1:30 PM, 4:30 PM – 7:30 PM",1
Dr Pallavi Joshi,general medicine,dwarka,28.589688,77.061389,400.0,3.9,+91-940692161,"General Physician Clinic / Hospital, Dwarka, Delhi","Mon–Sat | 9:30 AM – 1:30 PM, 4:30 PM – 7:30 PM",1
Dr Rajat Khanna,general medicine,dwarka,28.598344,77.059504,400.0,4.6,+91-917234672,"General Physician Clinic / Hospital, Dwarka, Delhi","Mon–Sat | 9:30 AM – 1:30 PM, 4:30 PM – 7:30 PM",1
Dr Smita Kapoor,general medicine,dwarka,28.609532,77.058708,800.0,4.7,+91-984352952,"General Physician Clinic / Hospital, Dwarka, Delhi","Mon–Sat | 9:30 AM – 1:30 PM, 4:30 PM – 7:30 PM",1
Dr R K Jain,general medicine,krishna nagar,28.669055,77.281479,800.0,4.3,+91-989701107,"General Physician Clinic / Hospital, Krishna Nagar, Delhi","Mon–Sat | 9:30 AM – 1:30 PM, 4:30 PM – 7:30 PM",1
Dr Alka Sharma,general medicine,krishna nagar,28.664141,77.273547,800.0,4.4,+91-906238900,"General Physician Clinic / Hospital, Krishna Nagar, Delhi","Mon–Sat | 9:30 AM – 1:30 PM, 4:30 PM – 7:30 PM",1
Dr Sunil Verma,general medicine,krishna nagar,28.646947,77.268879,1000.0,4.2,+91-924668774,"General Physician Clinic / Hospital, Krishna Nagar, Delhi","Mon–Sat | 9:30 AM – 1:30 PM, 4:30 PM – 7:30 PM",1
Dr Seema Arora,general medicine,krishna nagar,28.652411,77.300609,600.0,4.5,+91-924763553,"General Physician Clinic / Hospital, Krishna Nagar, Delhi","Mon–Sat | 9:30 AM – 1:30 PM, 4:30 PM – 7:30 PM",1
Dr Rajesh Bhatia,general medicine,krishna nagar,28.636897,77.276577,400.0,4.8,+91-928812650,"General Physician Clinic / Hospital, Krishna Nagar, Delhi","Mon–Sat | 9:30 AM – 1:30 PM, 4:30 PM – 7:30 PM",1
Dr Anita Khanna,general medicine,krishna nagar,28.663852,77.280091,1000.0,4.8,+91-910599389,"General Physician Clinic / Hospital, Krishna Nagar, Delhi","Mon–Sat | 9:30 AM – 1:30 PM, 4:30 PM – 7:30 PM",1
Dr Meenakshi Gupta,general medicine,krishna nagar,28.641578,77.282518,700.0,4.7,+91-912649437,"General Physician Clinic / Hospital, Krishna Nagar, Delhi","Mon–Sat | 9:30 AM – 1:30 PM, 4:30 PM – 7:30 PM",1
Dr Vikram Singh,general medicine,krishna nagar,28.643151,77.302009,400.0,4.6,+91-965974329,"General Physician Clinic / Hospital, Krishna Nagar, Delhi","Mon–Sat | 9:30 AM – 1:30 PM, 4:30 PM – 7:30 PM",1
Dr Neelam Sharma,general medicine,krishna nagar,28.647116,77.293238,1000.0,4.2,+91-935298407,"General Physician Clinic / Hospital, Krishna Nagar, Delhi","Mon–Sat | 9:30 AM – 1:30 PM, 4:30 PM – 7:30 PM",1
Dr Poonam Verma,general medicine,krishna nagar,28.666427,77.275041,800.0,4.5,+91-914527003,"General Physician Clinic / Hospital, Krishna Nagar, Delhi","Mon–Sat | 9:30 AM – 1:30 PM, 4:30 PM – 7:30 PM",1
Dr Gaurav Malhotra,general medicine,krishna nagar,28.634692,77.287745,400.0,4.6,+91-937743142,"General Physician Clinic / Hospital, Krishna Nagar, Delhi","Mon–Sat | 9:30 AM – 1:30 PM, 4:30 PM – 7:30 PM",1
Dr Tanya Singh,general medicine,krishna nagar,28.632973,77.280939,600.0,4.2,+91-988564972,"General Physician Clinic / Hospital, Krishna Nagar, Delhi","Mon–Sat | 9:30 AM – 1:30 PM, 4:30 PM – 7:30 PM",1
Dr Sandeep Grover,general medicine,krishna nagar,28.632833,77.290606,400.0,4.9,+91-935969405,"General Physician Clinic / Hospital, Krishna Nagar, Delhi","Mon–Sat | 9:30 AM – 1:30 PM, 4:30 PM – 7:30 PM",1
Dr Richa Nanda,general medicine,krishna nagar,28.656612,77.268096,400.0,4.4,+91-971515177,"General Physician Clinic / Hospital, Krishna Nagar, Delhi","Mon–Sat | 9:30 AM – 1:30 PM, 4:30 PM – 7:30 PM",1
Dr Hitesh Jain,general medicine,krishna nagar,28.64541,77.26642,700.0,4.8,+91-902266606,"General Physician Clinic / Hospital, Krishna Nagar, Delhi","Mon–Sat | 9:30 AM – 1:30 PM, 4:30 PM – 7:30 PM",1
Dr Shilpa Mehra,general medicine,krishna nagar,28.661756,77.289531,1000.0,4.8,+91-981894763,"General Physician Clinic / Hospital, Krishna Nagar, Delhi","Mon–Sat | 9:30 AM – 1:30 PM, 4:30 PM – 7:30 PM",1
Dr Jatin Kapoor,general medicine,krishna nagar,28.631069,77.296697,800.0,4.2,+91-922249191,"General Physician Clinic / Hospital, Krishna Nagar, Delhi","Mon–Sat | 9:30 AM – 1:30 PM, 4:30 PM – 7:30 PM",1
Dr Divya Khurana,general medicine,krishna nagar,28.632844,77.283355,700.0,4.5,+91-968959368,"General Physician Clinic / Hospital, Krishna Nagar, Delhi","Mon–Sat | 9:30 AM – 1:30 PM, 4:30 PM – 7:30 PM",1
Dr Arun Sharma,general medicine,krishna nagar,28.647023,77.295072,1000.0,4.6,+91-954116812,"General Physician Clinic / Hospital, Krishna Nagar, Delhi","Mon–Sat | 9:30 AM – 1:30 PM, 4:30 PM – 7:30 PM",1
Dr Nisha Bansal,general medicine,krishna nagar,28.63043,77.281004,500.0,4.4,+91-940409291,"General Physician Clinic / Hospital, Krishna Nagar, Delhi","Mon–Sat | 9:30 AM – 1:30 PM, 4:30 PM – 7:30 PM",1
Dr Sanjay Tripathi,general medicine,krishna nagar,28.669921,77.299179,400.0,4.0,+91-938549350,"General Physician Clinic / Hospital, Krishna Nagar, Delhi","Mon–Sat | 9:30 AM – 1:30 PM, 4:30 PM – 7:30 PM",1
Dr Chitra Iyer,general medicine,krishna nagar,28.648716,77.300623,400.0,3.9,+91-955284274,"General Physician Clinic / Hospital, Krishna Nagar, Delhi","Mon–Sat | 9:30 AM – 1:30 PM, 4:30 PM – 7:30 PM",1
Dr Pramod Saini,general medicine,krishna nagar,28.633566,77.298969,1000.0,4.2,+91-969103897,"General Physician Clinic / Hospital, Krishna Nagar, Delhi","Mon–Sat | 9:30 AM – 1:30 PM, 4:30 PM – 7:30 PM",1
Dr Komal Sehgal,general medicine,krishna nagar,28.649633,77.269385,500.0,4.9,+91-981693000,"General Physician Clinic / Hospital, Krishna Nagar, Delhi","Mon–Sat | 9:30 AM – 1:30 PM, 4:30 PM – 7:30 PM",1
Dr Bhavna Rathi,general medicine,krishna nagar,28.652534,77.293933,800.0,4.5,+91-951172738,"General Physician Clinic / Hospital, Krishna Nagar, Delhi","Mon–Sat | 9:30 AM – 1:30 PM, 4:30 PM – 7:30 PM",1
Dr Aarti Gupta,general medicine,krishna nagar,28.643496,77.273077,1000.0,4.8,+91-979823701,"General Physician Clinic / Hospital, Krishna Nagar, Delhi","Mon–Sat | 9:30 AM – 1:30 PM, 4:30 PM – 7:30 PM",1
Dr Mayank Chawla,general medicine,krishna nagar,28.660967,77.296328,700.0,4.8,+91-998137301,"General Physician Clinic / Hospital, Krishna Nagar, Delhi","Mon–Sat | 9:30 AM – 1:30 PM, 4:30 PM – 7:30 PM",1
Dr Rupali Deshmukh,general medicine,krishna nagar,28.631225,77.283435,400.0,4.6,+91-937274118,"General Physician Clinic / Hospital, Krishna Nagar, Delhi","Mon–Sat | 9:30 AM – 1:30 PM, 4:30 PM – 7:30 PM",1
Dr Nikhil Chopra,general medicine,krishna nagar,28.661532,77.295161,600.0,4.3,+91-977734219,"General Physician Clinic / Hospital, Krishna Nagar, Delhi","Mon–Sat | 9:30 AM – 1:30 PM, 4:30 PM – 7:30 PM",1
Dr Pallavi Mehra,general medicine,krishna nagar,28.659957,77.300729,500.0,4.5,+91-990992069,"General Physician Clinic / Hospital, Krishna Nagar, Delhi","Mon–Sat | 9:30 AM – 1:30 PM, 4:30 PM – 7:30 PM",1
Dr Kunal Anand,general medicine,krishna nagar,28.641601,77.292103,500.0,4.5,+91-988272758,"General Physician Clinic / Hospital, Krishna Nagar, Delhi","Mon–Sat | 9:30 AM – 1:30 PM, 4:30 PM – 7:30 PM",1
Dr Shivani Kaur,general medicine,krishna nagar,28.637219,77.272426,600.0,4.6,+91-928955559,"General Physician Clinic / Hospital, Krishna Nagar, Delhi","Mon–Sat | 9:30 AM – 1:30 PM, 4:30 PM – 7:30 PM",1
Dr Mohan Lal,general medicine,krishna nagar,28.660294,77.301711,1000.0,4.0,+91-985948510,"General Physician Clinic / Hospital, Krishna Nagar, Delhi","Mon–Sat | 9:30 AM – 1:30 PM, 4:30 PM – 7:30 PM",1
Dr Kabir Ahmed,general medicine,krishna nagar,28.65743,77.297348,800.0,3.9,+91-948703932,"General Physician Clinic / Hospital, Krishna Nagar, Delhi","Mon–Sat | 9:30 AM – 1:30 PM, 4:30 PM – 7:30 PM",1
Dr Ritu Chopra,general medicine,krishna nagar,28.636581,77.284215,1000.0,4.6,+91-987065018,"General Physician Clinic / Hospital, Krishna Nagar, Delhi","Mon–Sat | 9:30 AM – 1:30 PM, 4:30 PM – 7:30 PM",1
Dr Suman Lata,general medicine,krishna nagar,28.641692,77.297925,400.0,4.2,+91-928143816,"General Physician Clinic / Hospital, Krishna Nagar, Delhi","Mon–Sat | 9:30 AM – 1:30 PM, 4:30 PM – 7:30 PM",1
Dr Anurag Verma,general medicine,krishna nagar,28.657665,77.280565,800.0,4.3,+91-923823388,"General Physician Clinic / Hospital, Krishna Nagar, Delhi","Mon–Sat | 9:30 AM – 1:30 PM, 4:30 PM – 7:30 PM",1
Dr Rashmi Yadav,general medicine,krishna nagar,28.667257,77.281929,500.0,4.2,+91-966168264,"General Physician Clinic / Hospital, Krishna Nagar, Delhi","Mon–Sat | 9:30 AM – 1:30 PM, 4:30 PM – 7:30 PM",1
Dr Vivek Bedi,general medicine,krishna nagar,28.644534,77.299964,800.0,3.9,+91-948256487,"General Physician Clinic / Hospital, Krishna Nagar, Delhi","Mon–Sat | 9:30 AM – 1:30 PM, 4:30 PM – 7:30 PM",1
Dr Payal Joshi,general medicine,krishna nagar,28.635119,77.285584,500.0,4.1,+91-957406021,"General Physician Clinic / Hospital, Krishna Nagar, Delhi","Mon–Sat | 9:30 AM – 1:30 PM, 4:30 PM – 7:30 PM",1
Dr Neeraj Gupta,general medicine,rohini,28.705837,77.118053,400.0,4.4,+91-911702711,"General Physician Clinic / Hospital, Rohini, Delhi","Mon–Sat | 9:30 AM – 1:30 PM, 4:30 PM – 7:30 PM",1
Dr Rajat Sharma,general medicine,rohini,28.73654,77.119032,1000.0,4.8,+91-904565185,"General Physician Clinic / Hospital, Rohini, Delhi","Mon–Sat | 9:30 AM – 1:30 PM, 4:30 PM – 7:30 PM",1
Dr Sunita Bhardwaj,general medicine,rohini,28.717668,77.111788,700.0,4.4,+91-928517788,"General Physician Clinic / Hospital, Rohini, Delhi","Mon–Sat | 9:30 AM – 1:30 PM, 4:30 PM – 7:30 PM",1
Dr Asha Gupta,general medicine,rohini,28.741014,77.101352,600.0,4.6,+91-987576565,"General Physician Clinic / Hospital, Rohini, Delhi","Mon–Sat | 9:30 AM – 1:30 PM, 4:30 PM – 7:30 PM",1
Dr Puneet Malhotra,general medicine,rohini,28.732224,77.09823,800.0,4.1,+91-997388574,"General Physician Clinic / Hospital, Rohini, Delhi","Mon–Sat | 9:30 AM – 1:30 PM, 4:30 PM – 7:30 PM",1
Dr Deepa Nair,general medicine,rohini,28.726793,77.091994,400.0,4.7,+91-992237293,"General Physician Clinic / Hospital, Rohini, Delhi","Mon–Sat | 9:30 AM – 1:30 PM, 4:30 PM – 7:30 PM",1
Dr Vikas Arora,general medicine,rohini,28.72272,77.12743,1000.0,4.6,+91-939836540,"General Physician Clinic / Hospital, Rohini, Delhi","Mon–Sat | 9:30 AM – 1:30 PM, 4:30 PM – 7:30 PM",1
Dr Sonal Kapoor,general medicine,rohini,28.708855,77.109537,1000.0,4.5,+91-966886355,"General Physician Clinic / Hospital, Rohini, Delhi","Mon–Sat | 9:30 AM – 1:30 PM, 4:30 PM – 7:30 PM",1
Dr Praveen Sethi,general medicine,rohini,28.726309,77.119977,1000.0,4.7,+91-983734421,"General Physician Clinic / Hospital, Rohini, Delhi","Mon–Sat | 9:30 AM – 1:30 PM, 4:30 PM – 7:30 PM",1
Dr Ankita Verma,general medicine,rohini,28.713914,77.102246,800.0,4.0,+91-920824968,"General Physician Clinic / Hospital, Rohini, Delhi","Mon–Sat | 9:30 AM – 1:30 PM, 4:30 PM – 7:30 PM",1
Dr Abhishek Singh,general medicine,rohini,28.735141,77.119282,700.0,4.1,+91-931674878,"General Physician Clinic / Hospital, Rohini, Delhi","Mon–Sat | 9:30 AM – 1:30 PM, 4:30 PM – 7:30 PM",1
Dr Madhuri Rao,general medicine,rohini,28.742345,77.123147,400.0,4.2,+91-958653238,"General Physician Clinic / Hospital, Rohini, Delhi","Mon–Sat | 9:30 AM – 1:30 PM, 4:30 PM – 7:30 PM",1
Dr Kavya Iyer,general medicine,rohini,28.711983,77.092669,500.0,4.8,+91-959382435,"General Physician Clinic / Hospital, Rohini, Delhi","Mon–Sat | 9:30 AM – 1:30 PM, 4:30 PM – 7:30 PM",1
Dr Sachin Bansal,general medicine,rohini,28.7337,77.126957,500.0,4.4,+91-965349855,"General Physician Clinic / Hospital, Rohini, Delhi","Mon–Sat | 9:30 AM – 1:30 PM, 4:30 PM – 7:30 PM",1
Dr Richa Gupta,general medicine,rohini,28.73314,77.093928,800.0,4.1,+91-924284587,"General Physician Clinic / Hospital, Rohini, Delhi","Mon–Sat | 9:30 AM – 1:30 PM, 4:30 PM – 7:30 PM",1
Dr Harpreet Kaur,general medicine,rohini,28.735154,77.096573,600.0,4.4,+91-931633446,"General Physician Clinic / Hospital, Rohini, Delhi","Mon–Sat | 9:30 AM – 1:30 PM, 4:30 PM – 7:30 PM",1
Dr Anil Verma,general medicine,rohini,28.717992,77.100282,1000.0,4.1,+91-932094965,"General Physician Clinic / Hospital, Rohini, Delhi","Mon–Sat | 9:30 AM – 1:30 PM, 4:30 PM – 7:30 PM",1
Dr Namita Shah,general medicine,rohini,28.729675,77.092837,700.0,4.5,+91-957736480,"General Physician Clinic / Hospital, Rohini, Delhi","Mon–Sat | 9:30 AM – 1:30 PM, 4:30 PM – 7:30 PM",1
Dr Ishan Mehta,general medicine,rohini,28.728181,77.126578,1000.0,4.4,+91-954102526,"General Physician Clinic / Hospital, Rohini, Delhi","Mon–Sat | 9:30 AM – 1:30 PM, 4:30 PM – 7:30 PM",1
Dr Meera Joshi,general medicine,rohini,28.741547,77.111384,600.0,4.9,+91-935704954,"General Physician Clinic / Hospital, Rohini, Delhi","Mon–Sat | 9:30 AM – 1:30 PM, 4:30 PM – 7:30 PM",1
Dr Rohit Bansal,general medicine,rohini,28.717028,77.111648,400.0,4.4,+91-980299076,"General Physician Clinic / Hospital, Rohini, Delhi","Mon–Sat | 9:30 AM – 1:30 PM, 4:30 PM – 7:30 PM",1
Dr Kiran Joshi,general medicine,rohini,28.707103,77.118081,400.0,4.5,+91-938044803,"General Physician Clinic / Hospital, Rohini, Delhi","Mon–Sat | 9:30 AM – 1:30 PM, 4:30 PM – 7:30 PM",1
Dr Amit Jain,general medicine,rohini,28.734399,77.1103,600.0,4.6,+91-995115089,"General Physician Clinic / Hospital, Rohini, Delhi","Mon–Sat | 9:30 AM – 1:30 PM, 4:30 PM – 7:30 PM",1
Dr Monika Srivastava,general medicine,rohini,28.710663,77.112966,1000.0,4.8,+91-923767488,"General Physician Clinic / Hospital, Rohini, Delhi","Mon–Sat | 9:30 AM – 1:30 PM, 4:30 PM – 7:30 PM",1
Dr Sujata Goyal,general medicine,rohini,28.704378,77.105562,600.0,4.8,+91-969737567,"General Physician Clinic / Hospital, Rohini, Delhi","Mon–Sat | 9:30 AM – 1:30 PM, 4:30 PM – 7:30 PM",1
Dr Ramesh Pillai,general medicine,rohini,28.717491,77.106284,800.0,4.5,+91-965168470,"General Physician Clinic / Hospital, Rohini, Delhi","Mon–Sat | 9:30 AM – 1:30 PM, 4:30 PM – 7:30 PM",1
Dr Trisha Sen,general medicine,rohini,28.73945,77.120466,800.0,4.0,+91-986186542,"General Physician Clinic / Hospital, Rohini, Delhi","Mon–Sat | 9:30 AM – 1:30 PM, 4:30 PM – 7:30 PM",1
Dr Dilip Kumar,general medicine,rohini,28.719708,77.101026,600.0,4.3,+91-950688742,"General Physician Clinic / Hospital, Rohini, Delhi","Mon–Sat | 9:30 AM – 1:30 PM, 4:30 PM – 7:30 PM",1
Dr Ritu Mathur,general medicine,rohini,28.704563,77.104727,500.0,4.2,+91-904782748,"General Physician Clinic / Hospital, Rohini, Delhi","Mon–Sat | 9:30 AM – 1:30 PM, 4:30 PM – 7:30 PM",1
Dr Yashika Malik,general medicine,rohini,28.717145,77.122243,1000.0,4.2,+91-979842601,"General Physician Clinic / Hospital, Rohini, Delhi","Mon–Sat | 9:30 AM – 1:30 PM, 4:30 PM – 7:30 PM",1
Dr Arvind Nanda,general medicine,rohini,28.71042,77.109635,700.0,4.6,+91-962563303,"General Physician Clinic / Hospital, Rohini, Delhi","Mon–Sat | 9:30 AM – 1:30 PM, 4:30 PM – 7:30 PM",1
Dr Bhawna Kapoor,general medicine,rohini,28.742488,77.112403,1000.0,4.6,+91-943178974,"General Physician Clinic / Hospital, Rohini, Delhi","Mon–Sat | 9:30 AM – 1:30 PM, 4:30 PM – 7:30 PM",1
Dr Ritika Sehgal,general medicine,rohini,28.716711,77.127779,400.0,4.3,+91-917529442,"General Physician Clinic / Hospital, Rohini, Delhi","Mon–Sat | 9:30 AM – 1:30 PM, 4:30 PM – 7:30 PM",1
Dr Manoj Verma,general medicine,rohini,28.710337,77.108948,1000.0,4.2,+91-908747268,"General Physician Clinic / Hospital, Rohini, Delhi","Mon–Sat | 9:30 AM – 1:30 PM, 4:30 PM – 7:30 PM",1
Dr Sunil Kapoor,general medicine,rohini,28.709453,77.11093,1000.0,4.4,+91-939822740,"General Physician Clinic / Hospital, Rohini, Delhi","Mon–Sat | 9:30 AM – 1:30 PM, 4:30 PM – 7:30 PM",1
Dr Neha Bhatia,general medicine,rohini,28.71601,77.108053,500.0,4.1,+91-993043403,"General Physician Clinic / Hospital, Rohini, Delhi","Mon–Sat | 9:30 AM – 1:30 PM, 4:30 PM – 7:30 PM",1
Dr Kushal Jain,general medicine,rohini,28.730178,77.129087,700.0,4.5,+91-971978238,"General Physician Clinic / Hospital, Rohini, Delhi","Mon–Sat | 9:30 AM – 1:30 PM, 4:30 PM – 7:30 PM",1
Dr Seema Nanda,general medicine,rohini,28.711738,77.101362,800.0,4.7,+91-922824526,"General Physician Clinic / Hospital, Rohini, Delhi","Mon–Sat | 9:30 AM – 1:30 PM, 4:30 PM – 7:30 PM",1
Dr Vivek Sharma,general medicine,rohini,28.734846,77.09418,700.0,4.1,+91-900187752,"General Physician Clinic / Hospital, Rohini, Delhi","Mon–Sat | 9:30 AM – 1:30 PM, 4:30 PM – 7:30 PM",1
Dr Pallavi Gupta,general medicine,rohini,28.738293,77.123595,500.0,4.5,+91-956601750,"General Physician Clinic / Hospital, Rohini, Delhi","Mon–Sat | 9:30 AM – 1:30 PM, 4:30 PM – 7:30 PM",1
Dr Rajeev Khandelwal,general medicine,shahdara,28.666252,77.272018,700.0,4.9,+91-914282567,"General Physician Clinic / Hospital, Shahdara, Delhi","Mon–Sat | 9:30 AM – 1:30 PM, 4:30 PM – 7:30 PM",1
Dr Megha Sharma,general medicine,shahdara,28.68925,77.286586,700.0,4.7,+91-983921452,"General Physician Clinic / Hospital, Shahdara, Delhi","Mon–Sat | 9:30 AM – 1:30 PM, 4:30 PM – 7:30 PM",1
Dr Anil Sood,general medicine,shahdara,28.690234,77.300974,700.0,4.5,+91-920825135,"General Physician Clinic / Hospital, Shahdara, Delhi","Mon–Sat | 9:30 AM – 1:30 PM, 4:30 PM – 7:30 PM",1
Dr Pallavi Sharma,general medicine,shahdara,28.693042,77.306868,1000.0,4.0,+91-965777248,"General Physician Clinic / Hospital, Shahdara, Delhi","Mon–Sat | 9:30 AM – 1:30 PM, 4:30 PM – 7:30 PM",1
Dr Ramesh Gupta,general medicine,shahdara,28.679047,77.272785,400.0,4.6,+91-945935695,"General Physician Clinic / Hospital, Shahdara, Delhi","Mon–Sat | 9:30 AM – 1:30 PM, 4:30 PM – 7:30 PM",1
Dr Nisha Agarwal,general medicine,shahdara,28.684231,77.29843,400.0,4.2,+91-949108257,"General Physician Clinic / Hospital, Shahdara, Delhi","Mon–Sat | 9:30 AM – 1:30 PM, 4:30 PM – 7:30 PM",1
Dr Vimal Jain,general medicine,shahdara,28.692784,77.296818,700.0,4.4,+91-907726592,"General Physician Clinic / Hospital, Shahdara, Delhi","Mon–Sat | 9:30 AM – 1:30 PM, 4:30 PM – 7:30 PM",1
Dr Ritu Verma,general medicine,shahdara,28.699495,77.291511,500.0,3.9,+91-935439803,"General Physician Clinic / Hospital, Shahdara, Delhi","Mon–Sat | 9:30 AM – 1:30 PM, 4:30 PM – 7:30 PM",1
Dr Gita Sharma,general medicine,shahdara,28.664894,77.281263,500.0,4.0,+91-922957806,"General Physician Clinic / Hospital, Shahdara, Delhi","Mon–Sat | 9:30 AM – 1:30 PM, 4:30 PM – 7:30 PM",1
Dr Saurabh Kapoor,general medicine,shahdara,28.678899,77.271741,1000.0,4.0,+91-955864882,"General Physician Clinic / Hospital, Shahdara, Delhi","Mon–Sat | 9:30 AM – 1:30 PM, 4:30 PM – 7:30 PM",1
Dr Rekha Menon,general medicine,shahdara,28.666748,77.287549,400.0,3.9,+91-926971602,"General Physician Clinic / Hospital, Shahdara, Delhi","Mon–Sat | 9:30 AM – 1:30 PM, 4:30 PM – 7:30 PM",1
Dr Suneel Prasad,general medicine,shahdara,28.703748,77.271058,500.0,4.9,+91-930996893,"General Physician Clinic / Hospital, Shahdara, Delhi","Mon–Sat | 9:30 AM – 1:30 PM, 4:30 PM – 7:30 PM",1
Dr Shweta Rani,general medicine,shahdara,28.696262,77.279304,800.0,4.4,+91-967022703,"General Physician Clinic / Hospital, Shahdara, Delhi","Mon–Sat | 9:30 AM – 1:30 PM, 4:30 PM – 7:30 PM",1
Dr Amitabh Singh,general medicine,shahdara,28.679747,77.276989,600.0,4.7,+91-936211134,"General Physician Clinic / Hospital, Shahdara, Delhi","Mon–Sat | 9:30 AM – 1:30 PM, 4:30 PM – 7:30 PM",1
Dr Preeti Chopra,general medicine,shahdara,28.689199,77.298132,600.0,4.4,+91-940681213,"General Physician Clinic / Hospital, Shahdara, Delhi","Mon–Sat | 9:30 AM – 1:30 PM, 4:30 PM – 7:30 PM",1
Dr Kamal Verma,general medicine,shahdara,28.67013,77.296053,1000.0,4.4,+91-920277827,"General Physician Clinic / Hospital, Shahdara, Delhi","Mon–Sat | 9:30 AM – 1:30 PM, 4:30 PM – 7:30 PM",1
Dr Sunita Rao,general medicine,shahdara,28.697758,77.280422,400.0,4.3,+91-958996613,"General Physician Clinic / Hospital, Shahdara, Delhi","Mon–Sat | 9:30 AM – 1:30 PM, 4:30 PM – 7:30 PM",1
Dr Nandita Khanna,general medicine,shahdara,28.685605,77.30514,1000.0,4.3,+91-986766193,"General Physician Clinic / Hospital, Shahdara, Delhi","Mon–Sat | 9:30 AM – 1:30 PM, 4:30 PM – 7:30 PM",1
Dr Ashok Kumar,general medicine,shahdara,28.70273,77.269055,700.0,3.9,+91-929439369,"General Physician Clinic / Hospital, Shahdara, Delhi","Mon–Sat | 9:30 AM – 1:30 PM, 4:30 PM – 7:30 PM",1
Dr Sonia Bhatia,general medicine,shahdara,28.683831,77.27669,700.0,4.6,+91-966605731,"General Physician Clinic / Hospital, Shahdara, Delhi","Mon–Sat | 9:30 AM – 1:30 PM, 4:30 PM – 7:30 PM",1
Dr Karan Sehgal,general medicine,shahdara,28.693265,77.295547,1000.0,4.1,+91-975913848,"General Physician Clinic / Hospital, Shahdara, Delhi","Mon–Sat | 9:30 AM – 1:30 PM, 4:30 PM – 7:30 PM",1
Dr Deepika Anand,general medicine,shahdara,28.6893,77.302811,600.0,3.9,+91-983315656,"General Physician Clinic / Hospital, Shahdara, Delhi","Mon–Sat | 9:30 AM – 1:30 PM, 4:30 PM – 7:30 PM",1
Dr Rohit Arora,general medicine,shahdara,28.673968,77.283654,500.0,4.9,+91-957794667,"General Physician Clinic / Hospital, Shahdara, Delhi","Mon–Sat | 9:30 AM – 1:30 PM, 4:30 PM – 7:30 PM",1
Dr Arpita Das,general medicine,shahdara,28.681358,77.294644,1000.0,4.1,+91-919294232,"General Physician Clinic / Hospital, Shahdara, Delhi","Mon–Sat | 9:30 AM – 1:30 PM, 4:30 PM – 7:30 PM",1
Dr Prakash Kumar,general medicine,shahdara,28.665558,77.306188,800.0,3.9,+91-958265124,"General Physician Clinic / Hospital, Shahdara, Delhi","Mon–Sat | 9:30 AM – 1:30 PM, 4:30 PM – 7:30 PM",1
Dr Rajiv Bansal,general medicine,shahdara,28.694208,77.292268,1000.0,4.2,+91-988931618,"General Physician Clinic / Hospital, Shahdara, Delhi","Mon–Sat | 9:30 AM – 1:30 PM, 4:30 PM – 7:30 PM",1
Dr Uma Sharma,general medicine,shahdara,28.664948,77.290796,400.0,4.6,+91-996877883,"General Physician Clinic / Hospital, Shahdara, Delhi","Mon–Sat | 9:30 AM – 1:30 PM, 4:30 PM – 7:30 PM",1
Dr Mansi Jain,general medicine,shahdara,28.685098,77.27871,700.0,4.3,+91-944264765,"General Physician Clinic / Hospital, Shahdara, Delhi","Mon–Sat | 9:30 AM – 1:30 PM, 4:30 PM – 7:30 PM",1
Dr Hardik Shah,general medicine,shahdara,28.670763,77.293177,800.0,4.0,+91-940197358,"General Physician Clinic / Hospital, Shahdara, Delhi","Mon–Sat | 9:30 AM – 1:30 PM, 4:30 PM – 7:30 PM",1
Dr Shyam Sundar,general medicine,shahdara,28.680121,77.292916,800.0,4.2,+91-966874516,"General Physician Clinic / Hospital, Shahdara, Delhi","Mon–Sat | 9:30 AM – 1:30 PM, 4:30 PM – 7:30 PM",1
Dr Devika Mehra,general medicine,shahdara,28.67308,77.287304,600.0,4.6,+91-931902576,"General Physician Clinic / Hospital, Shahdara, Delhi","Mon–Sat | 9:30 AM – 1:30 PM, 4:30 PM – 7:30 PM",1
Dr Nitin Sharma,general medicine,shahdara,28.674268,77.286013,500.0,4.4,+91-928419160,"General Physician Clinic / Hospital, Shahdara, Delhi","Mon–Sat | 9:30 AM – 1:30 PM, 4:30 PM – 7:30 PM",1
Dr Shilpa Kapoor,general medicine,shahdara,28.683063,77.273994,800.0,4.7,+91-985517133,"General Physician Clinic / Hospital, Shahdara, Delhi","Mon–Sat | 9:30 AM – 1:30 PM, 4:30 PM – 7:30 PM",1
Dr Pradeep Malik,general medicine,shahdara,28.685484,77.270668,600.0,4.2,+91-978533240,"General Physician Clinic / Hospital, Shahdara, Delhi","Mon–Sat | 9:30 AM – 1:30 PM, 4:30 PM – 7:30 PM",1
Dr Anju Luthra,general medicine,shahdara,28.672117,77.294647,700.0,4.4,+91-992083453,"General Physician Clinic / Hospital, Shahdara, Delhi","Mon–Sat | 9:30 AM – 1:30 PM, 4:30 PM – 7:30 PM",1
Dr Yogesh Nair,general medicine,shahdara,28.696475,77.298548,500.0,4.3,+91-936133182,"General Physician Clinic / Hospital, Shahdara, Delhi","Mon–Sat | 9:30 AM – 1:30 PM, 4:30 PM – 7:30 PM",1
Dr Tarun Mehra,general medicine,shahdara,28.674407,77.295522,400.0,4.1,+91-992164478,"General Physician Clinic / Hospital, Shahdara, Delhi","Mon–Sat | 9:30 AM – 1:30 PM, 4:30 PM – 7:30 PM",1
Dr Richa Sood,general medicine,shahdara,28.682072,77.279861,800.0,4.6,+91-931278045,"General Physician Clinic / Hospital, Shahdara, Delhi","Mon–Sat | 9:30 AM – 1:30 PM, 4:30 PM – 7:30 PM",1
Dr Bhavna Kapoor,general medicine,shahdara,28.703755,77.281299,1000.0,3.9,+91-944365451,"General Physician Clinic / Hospital, Shahdara, Delhi","Mon–Sat | 9:30 AM – 1:30 PM, 4:30 PM – 7:30 PM",1
Dr Seema Reddy,general medicine,shahdara,28.665286,77.292841,500.0,4.0,+91-913357697,"General Physician Clinic / Hospital, Shahdara, Delhi","Mon–Sat | 9:30 AM – 1:30 PM, 4:30 PM – 7:30 PM",1
Dr Ritu Garg,gynecology,dwarka,28.595866,77.049825,900.0,4.8,Via Clinic / Practo,"Private Clinic / Hospital, Dwarka, Delhi","Mon–Sat | 9:30 AM – 1:30 PM, 4:30 PM – 7:30 PM",1
Dr Shilpa Ghosh,gynecology,dwarka,28.607502,77.047083,700.0,3.9,Via Clinic / Practo,"Private Clinic / Hospital, Dwarka, Delhi","Mon–Sat | 9:30 AM – 1:30 PM, 4:30 PM – 7:30 PM",1
Dr Yashica Gudesar,gynecology,dwarka,28.602354,77.037765,800.0,4.0,Via Clinic / Practo,"Private Clinic / Hospital, Dwarka, Delhi","Mon–Sat | 9:30 AM – 1:30 PM, 4:30 PM – 7:30 PM",1
Dr Neelam Mahajan,gynecology,dwarka,28.589657,77.037356,700.0,4.4,Via Clinic / Practo,"Private Clinic / Hospital, Dwarka, Delhi","Mon–Sat | 9:30 AM – 1:30 PM, 4:30 PM – 7:30 PM",1
